RECORDID,DAM_NAME,OTHER_DAM_NAME,DAM_FORMER_NAME,STATEID,NIDID,LONGITUDE,LATITUDE,SECTION,COUNTY,RIVER,CITY,DISTANCE,OWNER_NAME,OWNER_TYPE,DAM_DESIGNER,PRIVATE_DAM,DAM_TYPE,CORE,FOUNDATION,PURPOSES,YEAR_COMPLETED,YEAR_MODIFIED,DAM_LENGTH,DAM_HEIGHT,STRUCTURAL_HEIGHT,HYDRAULIC_HEIGHT,NID_HEIGHT,MAX_DISCHARGE,MAX_STORAGE,NORMAL_STORAGE,NID_STORAGE,SURFACE_AREA,DRAINAGE_AREA,HAZARD,EAP,INSPECTION_DATE,INSPECTION_FREQUENCY,STATE_REG_DAM,STATE_REG_AGENCY,SPILLWAY_TYPE,SPILLWAY_WIDTH,OUTLET_GATES,VOLUME,NUMBER_OF_LOCKS,LENGTH_OF_LOCKS,WIDTH_OF_LOCKS,FED_FUNDING,FED_DESIGN,FED_CONSTRUCTION,FED_REGULATORY,FED_INSPECTION,FED_OPERATION,FED_OWNER,FED_OTHER,SOURCE_AGENCY,STATE,SUBMIT_DATE,URL_ADDRESS,CONG_NAME,PARTY,CONG_DIST,OTHERSTRUCTUREID,NUMSEPARATESTRUCTURES,PERMITTINGAUTHORITY,INSPECTIONAUTHORITY,ENFORCEMENTAUTHORITY,JURISDICTIONALDAM,EAP_LAST_REV_DATE
4011,MENDOCINO MIDDLE,,,,CA00001,-123.1355,39.131,,MENDOCINO,MIDDLE CREEK,2,2,COUNTY OF MENDOCINO,L,,N,PG,X,R,CS,1908,,119,39,0,35.7,39,0,0,27,27,2,3.75,S,N,9/7/2017,1,Y,"DWR, SAFETY OF DAMS",U,0,,0,0,0,0,,,,,,,,,CA,CA,30-JUL-18,,Jared Huffman (D),D,CA02,,0,Y,Y,Y,Y,
4012,MENDOCINO 3 UPPER,,,,CA00002,-123.1302,39.1274,,MENDOCINO,MIDDLE CREEK,2.3,2.3,COUNTY OF MENDOCINO,L,,N,PG,X,R,CS,1915,,254,49,0,48,49,0,0,85,85,5,3.2,S,N,9/7/2017,1,Y,"DWR, SAFETY OF DAMS",U,0,,0,0,0,0,,,,,,,,,CA,CA,30-JUL-18,,Jared Huffman (D),D,CA02,,0,Y,Y,Y,Y,
4013,"CAMILLE, LAKE",,,,CA00003,-122.2525,38.2775,,NAPA,TR TULUCAY CR,1,1,NAPA STATE HOSPITAL,S,,N,RE,X,S,RS,1880,,600,30,0,28.3,30,0,0,47,47,3,0.1,S,Y,11/30/2017,1,Y,"DWR, SAFETY OF DAMS",U,0,,22000,0,0,0,,,,,,,,,CA,CA,30-JUL-18,,Mike Thompson (D),D,CA05,,0,Y,Y,Y,Y,12-DEC-15
4014,"MARIE, LAKE",,,,CA00004,-122.2293,38.2598,,NAPA,TR TULUCAY CR,2.4,2.4,NAPA STATE HOSPITAL,S,,N,RE,X,RS,S,1908,,454,60,0,36,60,0,0,170,170,8,1.06,H,Y,11/30/2017,1,Y,"DWR, SAFETY OF DAMS",U,0,,75000,0,0,0,,,,,,,,,CA,CA,30-JUL-18,,Mike Thompson (D),D,CA05,,0,Y,Y,Y,Y,12-DEC-15
4015,HENDERSON,,,,CA00005,-120.8771,38.3856,,AMADOR,JACKASS CREEK,4.5,4.5,AMADOR REGIONAL SANITATION AUTHORITY,U,,N,RE,X,R,CS,1923,,630,56,0,53,56,0,0,500,500,31,1,H,N,8/3/2017,1,Y,"DWR, SAFETY OF DAMS",U,0,,70000,0,0,0,,,,,,,,,CA,CA,30-JUL-18,,Tom McClintock (R),R,CA04,,0,Y,Y,Y,Y,
4016,PRESTON FOREBAY,,,,CA00006,-120.9233,38.3754,,AMADOR,OFFSTREAM,1.5,1.5,AMADOR REGIONAL SANITATION AUTHORITY,U,,N,RE,X,S,COS,1892,,176,40,0,36,40,0,0,30,30,2,0,L,N,8/3/2017,1,Y,"DWR, SAFETY OF DAMS",U,0,,22400,0,0,0,,,,,,,,,CA,CA,30-JUL-18,,Tom McClintock (R),R,CA04,,0,Y,Y,Y,Y,
4017,FERN LAKE,,,,CA00007,-122.5311,38.3431,,SONOMA,TR MILL CREEK,4.7,4.7,SONOMA DEVELOPMENTAL CENTER,S,,N,RE,X,S,S,1921,,300,40,0,36,40,0,0,241,241,14,0.25,H,Y,7/13/2017,1,Y,"DWR, SAFETY OF DAMS",U,0,,0,0,0,0,,,,,,,,,CA,CA,30-JUL-18,,Mike Thompson (D),D,CA05,,0,Y,Y,Y,Y,
4018,VETERANS HOME,"HINMAN, LAKE",,,CA00008,-122.3784,38.3918,,NAPA,TR NAPA RIVER,1.5,1.5,CALIFORNIA DEPARTMENT OF VETERAN AFFAIRS,S,,N,RE,X,R,RS,1908,,320,47,0,43.5,47,0,0,39,39,2,0.28,H,N,10/21/2017,1,Y,"DWR, SAFETY OF DAMS",U,0,,0,0,0,0,,,,,,,,,CA,CA,30-JUL-18,,Mike Thompson (D),D,CA05,,0,Y,Y,Y,Y,
4019,MOUNT STONEMAN,,,,CA00009,-121.153,38.699,,SACRAMENTO,TR AMERICAN RV,,0,CALIFORNIA DEPARTMENT OF CORRECTIONS AND REHABILITATION,S,,N,RE,X,R,S,1937,,420,43,0,40,43,0,0,33,33,2,0.02,L,N,2/21/2018,1,Y,"DWR, SAFETY OF DAMS",U,0,,24000,0,0,0,,,,,,,,,CA,CA,30-JUL-18,,Ami Bera (D),D,CA07,,0,Y,Y,Y,Y,
4020,SUTTENFIELD,,,,CA00010,-122.5185,38.3548,,SONOMA,SONOMA CREEK,3.3,3.3,SONOMA DEVELOPMENTAL CENTER,S,,N,RE,X,R,S,1938,,965,76,0,70,76,0,0,600,600,24,0.12,H,Y,7/13/2017,1,Y,"DWR, SAFETY OF DAMS",U,0,,239184,0,0,0,,,,,,,,,CA,CA,30-JUL-18,,Mike Thompson (D),D,CA05,,0,Y,Y,Y,Y,
4021,RECTOR CREEK,,,,CA00011,-122.3454,38.4434,,NAPA,RECTOR CREEK,4,4,CALIFORNIA DEPARTMENT OF VETERAN AFFAIRS,S,,N,RE,X,R,S,1946,,890,164,0,155,164,0,0,4587,4587,82,10.7,H,N,9/21/2017,1,Y,"DWR, SAFETY OF DAMS",U,0,,1339500,0,0,0,,,,,,,,,CA,CA,30-JUL-18,,Mike Thompson (D),D,CA05,,0,Y,Y,Y,Y,
4022,PRESTON,,,,CA00012,-120.9398,38.3698,"S24,T 6N,R 9E,MD",AMADOR,TR MULE CREEK,0.5,,AMADOR REGIONAL SANITATION AUTHORITY,U,USDA NRCS,N,RE,X,R,CS,1949,,647,40,0,35,40,0,0,268,268,17,0.12,H,N,8/3/2017,1,Y,"DWR, SAFETY OF DAMS",U,0,,86519,0,0,0,,USDA NRCS,,,,,,,CA,CA,30-JUL-18,,Tom McClintock (R),R,CA04,,0,Y,Y,Y,Y,
4023,SEMPERVIRENS,,,,CA00013,-122.2089,37.1896,,SANTA CRUZ,SEMPERVIRENS CREEK,,0,CALIFORNIA DEPARTMENT OF PARKS AND RECREATION,S,,N,RE,X,R,CS,1951,,260,42,0,34,42,0,0,78,78,4,0.36,S,Y,3/1/2018,1,Y,"DWR, SAFETY OF DAMS",U,0,,46572,0,0,0,,,,,,,,,CA,CA,30-JUL-18,,Anna G. Eshoo (D),D,CA18,,0,Y,Y,Y,Y,
4024,LOWER BUCK LAKE,BUCK LAKES,,,CA00015,-119.747,38.153,,TUOLUMNE,BUCK MEADOW CR,,0,U.S. FOREST SERVICE,F,,N,PG,X,U,RS,1931,,46,9,0,9,9,0,0,360,360,48,5.8,U,N,,0,N,,U,0,,153,0,0,0,,,,,,,,,CA,CA,30-JUL-18,,Tom McClintock (R),R,CA04,,0,N,N,N,N,
4025,BIGELOW LAKE,,,,CA00016,-119.64,38.157,,TUOLUMNE,EFK CHERRY CR,,0,U.S. FOREST SERVICE,F,,N,PG,X,U,RS,1931,,85,10,0,8.4,10,0,0,470,470,55,0.6,U,N,,0,N,,U,0,,356,0,0,0,,,,,,,,,CA,CA,30-JUL-18,,Tom McClintock (R),R,CA04,,0,N,N,N,N,
4026,HIGH EMIGRANT LAKE,,,,CA00017,-119.632,38.208,,TUOLUMNE,NFK CHERRY CR,,0,U.S. FOREST SERVICE,F,,N,PG,X,U,RS,,,56,8,0,6.7,8,0,0,67,67,9,0.5,U,N,,0,N,,U,0,,64,0,0,0,,,,,,,,,CA,CA,30-JUL-18,,Tom McClintock (R),R,CA04,,0,N,N,N,N,
4027,ROUND LAKE,,,,CA00020,-120.007,38.753,,EL DORADO,U TRUCKEE RIVER,,0,CALIFORNIA DEPARTMENT OF FISH AND WILDLIFE,F,,N,PG,X,U,RS,1955,,44,9,0,8.1,9,0,0,300,300,41,0,U,N,,0,N,,U,0,,134,0,0,0,,,,,,,,,CA,CA,30-JUL-18,,Tom McClintock (R),R,CA04,,0,N,N,N,N,
4028,PENNSYLVANIA CREEK,,,,CA00023,-122.0663,38.2616,,SOLANO,PENNSYLVANIA CR,,0,CITY OF FAIRFIELD,L,,N,RE,X,S,C,1958,,3100,14,0,10,14,0,0,148,148,35,1.77,H,Y,10/18/2017,1,Y,"DWR, SAFETY OF DAMS",U,0,,35000,0,0,0,,,,,,,,,CA,CA,30-JUL-18,,John Garamendi (D),D,CA03,,0,Y,Y,Y,Y,29-JUL-16
4029,FINNON LAKE,,,,CA00024,-120.7527,38.7978,,EL DORADO,JAY BIRD CREEK,13,13,MOSQUITO VOLUNTEER FIRE DEPARTMENT,U,,N,RE,X,S,RS,2012,,830,46,0,41,46,0,0,400,400,35,0.27,S,N,3/13/2018,1,Y,"DWR, SAFETY OF DAMS",U,0,,104059,0,0,0,,,,,,,,,CA,CA,30-JUL-18,,Tom McClintock (R),R,CA04,,0,Y,Y,Y,Y,
4030,RUTHERFORD LAKE,,,,CA00025,-119.368,37.598,,MADERA,WFK GRANITE CR,,0,U.S. FOREST SERVICE,F,,N,PG,X,U,RS,1955,,230,10,0,9,10,0,0,198,198,28,0.4,U,N,,0,N,,U,0,,385,0,0,0,,,,,,,,,CA,CA,30-JUL-18,,Tom McClintock (R),R,CA04,,0,N,N,N,N,
4031,MCCLURE LAKE,,,,CA00026,-119.312,37.642,,MADERA,TR EFK GRANITE CR,,0,U.S. FOREST SERVICE,F,,N,PG,X,U,RS,1960,,150,12,0,11,12,0,0,209,209,23,0.6,U,N,,0,N,,U,0,,175,0,0,0,,,,,,,,,CA,CA,30-JUL-18,,Tom McClintock (R),R,CA04,,0,N,N,N,N,
4032,MADERA LAKE,,,,CA00027,-120.0015,37.0205,,MADERA,FRESNO RIVER,2,2,MADERA IRRIGATION DISTRICT,U,,N,RE,X,S,RS,1958,,6600,31,0,17,31,0,0,2300,2300,220,4.5,H,N,3/8/2018,1,Y,"DWR, SAFETY OF DAMS",U,0,,87000,0,0,0,,,,,,,,,CA,CA,30-JUL-18,,Jim Costa (D),D,CA16,,0,Y,Y,Y,Y,
4033,WHALE ROCK,,,,CA00029,-120.887,35.4478,,SAN LUIS OBISPO,OLD CREEK,0.5,0.5,WHALE ROCK COMMISSION,U,,N,RE,X,RS,S,1960,,850,193,0,176,193,0,0,40662,40662,594,20.8,H,Y,2/16/2018,1,Y,"DWR, SAFETY OF DAMS",U,0,,2449800,0,0,0,,,,,,,,,CA,CA,30-JUL-18,,Salud O. Carbajal (D),D,CA24,,0,Y,Y,Y,Y,01-NOV-15
4034,EUREKA,,,,CA00031,-120.713,39.7636,,PLUMAS,EUREKA CREEK,1.8,1.8,CALIFORNIA DEPARTMENT OF PARKS AND RECREATION,S,,Y,RE,X,S,RS,1866,,410,29,0,14.5,29,0,0,220,220,22,0.52,S,N,6/21/2018,1,Y,"DWR, SAFETY OF DAMS",U,0,,0,0,0,0,,,,,,,,,CA,CA,30-JUL-18,,Doug LaMalfa (R),R,CA01,,0,Y,Y,Y,Y,
4035,FRENCHMAN,,,,CA00032,-120.191,39.893,,PLUMAS,LIT LAST CHANCE CR,8,8,CALIFORNIA DEPARTMENT OF WATER RESOURCES,S,,Y,RE,X,R,RS,1961,,720,139,0,120,139,0,0,55477,55477,1580,82,H,Y,10/4/2017,1,Y,"DWR, SAFETY OF DAMS",U,0,,537000,0,0,0,,,,,,,,,CA,CA,30-JUL-18,,Doug LaMalfa (R),R,CA01,,0,Y,Y,Y,Y,
4036,BETHANY FOREBAY,,,,CA00033,-121.6178,37.7835,,ALAMEDA,TR ITALIAN SLOUGH,3,3,CALIFORNIA DEPARTMENT OF WATER RESOURCES,S,,N,RE,X,S,RS,1961,,695,95,0,90,95,0,0,5000,5000,163,4.46,H,Y,1/9/2018,1,Y,"DWR, SAFETY OF DAMS",U,0,,1150000,0,0,0,,,,,,,,,CA,CA,30-JUL-18,,Eric Swalwell (D),D,CA15,,0,Y,Y,Y,Y,
4037,FISH BARRIER,,,,CA00034,-121.5478,39.5205,"S.8,T.19N,R.4E",BUTTE,FEATHER RIVER,MARYSVILLE,23,,X,,N,CNPG,HCK,RK,IS,1964,,600,61,91,61,91,80000,580,580,580,10,3611,L,NR,5/25/2016,1,Y,"DWR, SAFETY OF DAMS",U,600,,9300,0,0,0,,,,FERC,FERC,,,,FERC,CA,05-AUG-18,,Doug LaMalfa (R),R,CA01,,1,Y,Y,Y,Y,
4038,OROVILLE,,,,CA00035,-121.4855,39.5388,"S.35,T.20N,R.3E,...",BUTTE,FEATHER RIVER,OROVILLE,3,CALIFORNIA DEPT OF WATER RESOURCES,S,DWR,N,ERRE,IEK,RK,CHIRS,1968,,6920,770,770,748,770,227000,3540000,3540000,3540000,15800,3611,H,Y,5/22/2018,1,Y,"DWR, SAFETY OF DAMS",C,140,T8;,80000000,0,0,0,,,,FERC,FERC,,,,FERC,CA,05-AUG-18,,Doug LaMalfa (R),R,CA01,,3,Y,Y,Y,Y,28-DEC-17
4039,BIDWELL BAR CANYON SADDLE,,,,CA00035,-121.458,39.5118,"S.7/18,T.19N,R.5E",BUTTE,FEATHER RIVER,OROVILLE,5,,X,DWR,N,ERRE,IEK,RK,CHIRS,1968,,2270,47,50,25,50,0,3540000,3540000,3540000,15800,3611,H,Y,5/23/2018,1,N,,N,0,,191000,0,0,0,,,,FERC,FERC,,,,FERC,CA,05-AUG-18,,Doug LaMalfa (R),R,CA01,S001,3,N,N,N,N,28-DEC-17
4040,PARISH CAMP SADDLE,,,,CA00035,-121.5605,39.6743,"S.17,T.21N,R.4E",BUTTE,DRY CREEK/CHEROKEE CANAL,BIGGS,19,,X,DWR,N,ERRE,IEK,RK,CHIRS,1968,,260,27,36,5,36,0,3540000,3540000,3540000,15800,3611,H,Y,5/23/2018,1,N,,N,0,,12800,0,0,0,,,,FERC,FERC,,,,FERC,CA,05-AUG-18,,Doug LaMalfa (R),R,CA01,S002,3,N,N,N,N,28-DEC-17
4041,THERMALITO DIVERSION,,,,CA00036,-121.5449,39.5288,"S.5,T.19N,R.4E",BUTTE,FEATHER RIVER,OROVILLE,2,,X,DWR,N,CNPGRE,HCK,RK,HS,1967,,1300,143,143,135,143,150000,0,13328,13328,323,3640,H,Y,9/26/2017,1,Y,"DWR, SAFETY OF DAMS",C,560,T14;,154000,0,0,0,,,,FERC,FERC,,,,FERC,CA,05-AUG-18,,Doug LaMalfa (R),R,CA01,,1,Y,Y,Y,Y,28-DEC-17
4042,ANTELOPE,,,,CA00037,-120.6076,40.1808,,PLUMAS,INDIAN CREEK,14,14,CALIFORNIA DEPARTMENT OF WATER RESOURCES,S,,Y,RE,X,R,RS,1964,,1320,113,0,90,113,0,0,22566,22566,931,71,H,Y,10/5/2017,1,Y,"DWR, SAFETY OF DAMS",U,0,,380000,0,0,0,,,,,,,,,CA,CA,30-JUL-18,,Doug LaMalfa (R),R,CA01,,0,Y,Y,Y,Y,
4043,LOWER SARDINE LAKE,,,,CA00038,-120.6227,39.616,,SIERRA,SARDINE CREEK,4.5,4.5,CALIFORNIA DEPARTMENT OF FISH AND WILDLIFE,S,,Y,RE,X,S,RS,1965,,162,17,0,9,17,0,0,280,280,38,1.9,L,N,6/6/2018,1,Y,"DWR, SAFETY OF DAMS",U,0,,6500,0,0,0,,,,,,,,,CA,CA,30-JUL-18,,Doug LaMalfa (R),R,CA01,,0,Y,Y,Y,Y,
4044,GRIZZLY VALLEY,"DAVIS, LAKE",,,CA00039,-120.4771,39.8827,,PLUMAS,BIG GRIZZLY CR,8,8,CALIFORNIA DEPARTMENT OF WATER RESOURCES,S,,Y,RE,X,R,RS,1966,,800,115,0,105,115,0,0,83000,83000,4032,44,H,Y,10/4/2017,1,Y,"DWR, SAFETY OF DAMS",U,0,,253000,0,0,0,,,,,,,,,CA,CA,30-JUL-18,,Doug LaMalfa (R),R,CA01,,0,Y,Y,Y,Y,
4045,"JUANITA, LAKE",,,,CA00040,-122.1267,41.8194,,SISKIYOU,TR MUSGRAVE CR,,0,CALIFORNIA DEPARTMENT OF FISH AND WILDLIFE,F,,N,RE,X,U,RS,1964,,907,20,0,16,20,0,0,348,348,55,3.08,U,N,,0,N,,U,0,,25000,0,0,0,,,,,,,,,CA,CA,30-JUL-18,,Doug LaMalfa (R),R,CA01,,0,N,N,N,N,
4046,THERMALITO FOREBAY,,,,CA00041,-121.6012,39.5252,"S.10,2,1,T.19N,R.3E",BUTTE,FEATHER RIVER - OFF STREAM,OROVILLE,6,,X,DWR,N,RE,IEK,RK,HR,1967,,15900,91,91,65,91,5000,11768,11768,11768,630,5,H,Y,9/27/2017,1,Y,"DWR, SAFETY OF DAMS",U,30,,1840000,0,0,0,,,,FERC,FERC,,,,FERC,CA,05-AUG-18,,Doug LaMalfa (R),R,CA01,,1,Y,Y,Y,Y,28-DEC-17
4047,THERMALITO AFTERBAY,,,,CA00042,-121.6871,39.4771,"S.128,...,T.19N,R.3E",BUTTE,FEATHER RIVER - OFF STREAM,MARYSVILLE,20,,X,DWR,N,RE,IEK,RK,HIRS,1967,,42000,39,39,31.5,39,17000,0,57041,57041,6900,13.3,H,Y,9/27/2017,1,Y,"DWR, SAFETY OF DAMS",C,70,,5020000,0,0,0,,,,FERC,FERC,,,,FERC,CA,05-AUG-18,,Doug LaMalfa (R),R,CA01,,1,Y,Y,Y,Y,28-DEC-17
4048,DEL VALLE,,,,CA00043,-121.745,37.6157,,ALAMEDA,ARROYO VALLE,6,6,CALIFORNIA DEPARTMENT OF WATER RESOURCES,S,,N,RE,X,R,CRS,1968,,880,222,0,194,222,47000,0,77100,77100,710,146,H,Y,1/10/2018,1,Y,"DWR, SAFETY OF DAMS",U,0,,4200000,0,0,0,,,,,,,,,CA,CA,30-JUL-18,,Eric Swalwell (D),D,CA15,,0,Y,Y,Y,Y,
4049,CASTAIC,,,,CA00044,-118.6136,34.5215,,LOS ANGELES,CASTAIC CREEK,1,1,CALIFORNIA DEPARTMENT OF WATER RESOURCES,S,,Y,RE,X,R,RS,1973,,5200,340,0,320,340,0,0,323700,323700,2235,153.7,H,Y,4/17/2017,1,Y,"DWR, SAFETY OF DAMS",U,0,,44000000,0,0,0,,,,,,,,,CA,CA,30-JUL-18,,Katie Hill (D),D,CA25,,0,Y,Y,Y,Y,
4050,RALSTON LAKE,,,,CA00045,-120.097,38.843,,EL DORADO,RALSTON LAKE,,0,U.S. FOREST SERVICE,F,,N,PG,X,U,ORS,1960,,40,11,0,10,11,0,0,150,150,16,0,U,N,,0,N,,U,0,,116,0,0,0,,,,,,,,,CA,CA,30-JUL-18,,Tom McClintock (R),R,CA04,,0,N,N,N,N,
4051,PATTERSON,,,,CA00048,-121.6836,37.6985,,ALAMEDA,OFFSTREAM,2,2,CALIFORNIA DEPARTMENT OF WATER RESOURCES,S,,N,RE,X,RS,S,1962,,1275,39,0,35.5,39,0,0,104,104,4,0,H,Y,1/10/2018,1,Y,"DWR, SAFETY OF DAMS",U,0,,97450,0,0,0,,,,,,,,,CA,CA,30-JUL-18,,Eric Swalwell (D),D,CA15,,0,Y,Y,Y,Y,
4052,CEDAR SPRINGS,,,,CA00049,-117.3142,34.3046,"SE1/4 HESPERIA,T.2N-T.3N,R.4W",SAN BERNARDINO,MOJAVE RIVER,NONE,0,,X,DWR,N,ERRE,,R,HRS,1971,,2230,249,249,190,249,32200,75000,75000,75000,980,34,H,Y,6/21/2018,1,Y,"DWR, SAFETY OF DAMS",U,120,,7600000,0,0,0,,,,FERC,FERC,,,,FERC,CA,05-AUG-18,,Paul Cook (R),R,CA08,,1,Y,Y,Y,Y,22-DEC-17
4053,CLIFTON COURT FOREBAY,,,,CA00050,-121.5864,37.821,,CONTRA COSTA,TR OLD RIVER,21.5,21.5,CALIFORNIA DEPARTMENT OF WATER RESOURCES,S,,N,RE,X,S,OS,1970,,39000,34,0,26,34,0,0,29000,29000,2500,0,L,N,1/9/2018,1,Y,"DWR, SAFETY OF DAMS",U,0,,2700000,0,0,0,,,,,,,,,CA,CA,30-JUL-18,,Jerry McNerney (D),D,CA09,,0,Y,Y,Y,Y,
4054,OAK SITE,,,,CA00051,-122.1719,37.1274,,SANTA CRUZ,TR BIG CREEK,22,22,CALIFORNIA DEPARTMENT OF FORESTRY AND FIRE PROTECTION,S,,N,RE,X,R,S,1969,,290,43,0,37,43,0,0,20,20,2,0.08,L,N,3/1/2018,1,Y,"DWR, SAFETY OF DAMS",U,0,,19400,0,0,0,,,,,,,,,CA,CA,30-JUL-18,,Anna G. Eshoo (D),D,CA18,,0,Y,Y,Y,Y,
4055,PYRAMID,,,,CA00052,-118.7643,34.6443,"S.2,T.6N,R.18W",LOS ANGELES,PIRU CREEK,PIRU,12,,X,DWR,N,ERRE,,R,CHRS,1974,,1090,400,422,380,422,20000,171000,170000,171000,1290,432,H,Y,6/19/2018,1,Y,"DWR, SAFETY OF DAMS",C,40,T1;,6860000,0,0,0,,,,FERC,FERC,,,,FERC,CA,05-AUG-18,,Katie Hill (D),D,CA25,,1,Y,Y,Y,Y,22-DEC-17
4056,J W WISDA,,,,CA00053,-118.5929,34.0934,,LOS ANGELES,TR TOPANGA CAN,,0,CALIFORNIA DEPARTMENT OF PARKS AND RECREATION,S,,N,RE,X,R,R,1958,,350,50,0,43.3,50,0,0,45,45,4,0.22,L,N,2/23/2018,1,Y,"DWR, SAFETY OF DAMS",U,0,,20000,0,0,0,,,,,,,,,CA,CA,30-JUL-18,,Ted Lieu (D),D,CA33,,0,Y,Y,Y,Y,
4057,PERRIS,PERRIS RESERVOIR,,,CA00054,-117.1978,33.8633,,RIVERSIDE,BERNASCONI PASS,4,4,CALIFORNIA DEPARTMENT OF WATER RESOURCES,S,,N,RE,X,S,RS,1973,,11600,130,0,120.16,130,0,0,131452,131452,2340,10,H,Y,12/21/2017,1,Y,"DWR, SAFETY OF DAMS",U,0,,16650000,0,0,0,,,,,,,,,CA,CA,30-JUL-18,,Ken Calvert (R),R,CA42,,0,Y,Y,Y,Y,
4058,CANADA ROAD,,,,CA00055,-122.33133,37.5,,SAN MATEO,TR SAN MATEO CR,2,2,CALIFORNIA DEPARTMENT OF TRANSPORTATION,S,,N,RE,X,R,CS,1971,,1300,52,0,46,52,0,0,74,74,6,0.05,L,N,12/20/2017,1,Y,"DWR, SAFETY OF DAMS",U,0,,155000,0,0,0,,,,,,,,,CA,CA,30-JUL-18,,Jackie Speier (D),D,CA14,,0,Y,Y,Y,Y,
4059,ANNADEL NO 1,,,,CA00056,-122.6344,38.4271,"S28,T 7N,R 7W,MD",SONOMA,SPRING CREEK,1.8,,CALIFORNIA DEPARTMENT OF PARKS AND RECREATION,S,USDA NRCS,N,RE,X,R,RS,1956,,400,67,0,62.1,67,0,0,395,395,35,1.71,H,N,11/16/2017,1,Y,"DWR, SAFETY OF DAMS",U,0,,35000,0,0,0,,USDA NRCS,,,,,,,CA,CA,30-JUL-18,,Mike Thompson (D),D,CA05,,0,Y,Y,Y,Y,
4060,ANTIOCH RES,ANTIOCH MUNICIPAL,,,CA00057,-121.809,37.9779,,CONTRA COSTA,TR SAN JOAQUIN RIV,,0,CITY OF ANTIOCH,L,,N,RE,X,R,CS,1935,,450,30,0,24.5,30,0,0,722,722,61,1.68,H,Y,11/1/2017,1,Y,"DWR, SAFETY OF DAMS",U,0,,22810,0,0,0,,,,,,,,,CA,CA,30-JUL-18,,Jerry McNerney (D),D,CA09,,0,Y,Y,Y,Y,
4061,RESERVOIR NO 4,,,,CA00059,-118.2984,34.1943,,LOS ANGELES,OFFSTREAM,,0,CITY OF BURBANK,L,,N,OT,X,S,S,1955,,210,38,0,34,38,0,0,34,34,1,0,H,Y,3/7/2018,1,Y,"DWR, SAFETY OF DAMS",U,0,,11500,0,0,0,,,,,,,,,CA,CA,30-JUL-18,,Adam B. Schiff (D),D,CA28,,0,Y,Y,Y,Y,01-DEC-15
4062,RESERVOIR NO 5,,,,CA00060,-118.33,34.21,,LOS ANGELES,OFFSTREAM,,0,CITY OF BURBANK,L,,N,OT,X,S,S,1949,,870,36,0,34,36,0,0,77,77,3,0,H,Y,3/7/2018,1,Y,"DWR, SAFETY OF DAMS",U,0,,40000,0,0,0,,,,,,,,,CA,CA,30-JUL-18,,Adam B. Schiff (D),D,CA28,,0,Y,Y,Y,Y,01-DEC-15
4063,BRAND PARK,,,,CA00061,-118.275,34.1851,,LOS ANGELES,OFFSTREAM,,0,CITY OF GLENDALE,L,,N,RE,X,S,S,1930,,230,99,0,94.8,99,0,0,32,32,1,0,H,Y,3/29/2018,1,Y,"DWR, SAFETY OF DAMS",U,0,,50000,0,0,0,,,,,,,,,CA,CA,30-JUL-18,,Adam B. Schiff (D),D,CA28,,0,Y,Y,Y,Y,
4064,DIEDERICH RES,,,,CA00064,-118.2505,34.169,,LOS ANGELES,OFFSTREAM,,0,CITY OF GLENDALE,L,,N,RE,X,R,S,1950,,100,60,0,56,60,0,0,174,174,7,0,H,Y,3/29/2018,1,Y,"DWR, SAFETY OF DAMS",U,0,,250840,0,0,0,,,,,,,,,CA,CA,30-JUL-18,,Adam B. Schiff (D),D,CA28,,0,Y,Y,Y,Y,
4065,GLENOAKS 968 RESERVOIR,,,,CA00065,-118.2128,34.1539,,LOS ANGELES,OFFSTREAM,,0,CITY OF GLENDALE,L,,N,RE,X,S,S,1949,,220,62,0,58,62,0,0,28,28,1,0,H,Y,3/29/2018,1,Y,"DWR, SAFETY OF DAMS",U,0,,70870,0,0,0,,,,,,,,,CA,CA,30-JUL-18,,Adam B. Schiff (D),D,CA28,,0,Y,Y,Y,Y,
4066,CHATSWORTH,,,,CA00067,-118.6322,34.2278,,LOS ANGELES,TR LOS ANGELES R,1,1,CITY OF LOS ANGELES DEPARTMENT OF WATER AND POWER,L,,N,RE,X,RS,S,1918,,2700,45,0,35,45,0,0,9886,9886,607,5.4,H,Y,7/27/2017,1,Y,"DWR, SAFETY OF DAMS",U,0,,739304,0,0,0,,,,,,,,,CA,CA,30-JUL-18,,Brad Sherman (D),D,CA30,,0,Y,Y,Y,Y,
4067,DRY CANYON,,,,CA00068,-118.5293,34.4813,,LOS ANGELES,DRY CANYON CR,1,1,CITY OF LOS ANGELES DEPARTMENT OF WATER AND POWER,L,,Y,RE,X,RS,C,1912,,780,66,0,57.4,66,0,0,1140,1140,58,4.5,H,Y,7/12/2017,1,Y,"DWR, SAFETY OF DAMS",U,0,,360000,0,0,0,,,,,,,,,CA,CA,30-JUL-18,,Katie Hill (D),D,CA25,,0,Y,Y,Y,Y,
4068,ELYSIAN,,,,CA00069,-118.23,34.0779,,LOS ANGELES,TR LOS ANGELES R,,0,CITY OF LOS ANGELES DEPARTMENT OF WATER AND POWER,L,,N,RE,X,R,S,1943,,480,71,0,67,71,0,0,167,167,6,0.08,H,Y,7/13/2017,1,Y,"DWR, SAFETY OF DAMS",U,0,,93700,0,0,0,,,,,,,,,CA,CA,30-JUL-18,,Jimmy Gomez (D),D,CA34,,0,Y,Y,Y,Y,
4069,ENCINO,,,,CA00070,-118.511,34.1482,,LOS ANGELES,ENCINO CREEK,,0,CITY OF LOS ANGELES DEPARTMENT OF WATER AND POWER,L,,N,RE,X,R,S,1924,,1850,168,0,155,168,0,0,9789,9789,158,1.4,H,Y,7/26/2017,1,Y,"DWR, SAFETY OF DAMS",U,0,,3158406,0,0,0,,,,,,,,,CA,CA,30-JUL-18,,Brad Sherman (D),D,CA30,,0,Y,Y,Y,Y,
4070,FAIRMONT,,,,CA00071,-118.4274,34.7049,,LOS ANGELES,ANTELOPE VALLEY,2,2,CITY OF LOS ANGELES DEPARTMENT OF WATER AND POWER,L,,N,RE,X,R,CR,1912,,4300,121,0,112,121,0,0,7507,7507,172,2.64,S,N,7/12/2017,1,Y,"DWR, SAFETY OF DAMS",U,0,,696300,0,0,0,,,,,,,,,CA,CA,30-JUL-18,,Katie Hill (D),D,CA25,,0,Y,Y,Y,Y,
4071,BIG PINE CREEK,,,,CA00072,-118.4857,37.1245,,INYO,BIG PINE CREEK,1,1,CITY OF LOS ANGELES DEPARTMENT OF WATER AND POWER,L,,Y,ER,X,R,HS,,,50,14,0,7,14,0,0,1071,1071,35,7.5,H,Y,9/27/2017,1,Y,"DWR, SAFETY OF DAMS",U,0,,0,0,0,0,,,,,,,,,CA,CA,30-JUL-18,,Paul Cook (R),R,CA08,,0,Y,Y,Y,Y,
4072,LOWER FRANKLIN,,,,CA00075,-118.412,34.0947,,LOS ANGELES,FRANKLIN CANYON,,0,CITY OF LOS ANGELES DEPARTMENT OF WATER AND POWER,L,,N,RE,X,S,C,1922,,500,103,0,91.8,103,0,0,920,920,22,1.12,H,Y,7/26/2017,1,Y,"DWR, SAFETY OF DAMS",U,0,,272350,0,0,0,,,,,,,,,CA,CA,30-JUL-18,,Ted Lieu (D),D,CA33,,0,Y,Y,Y,Y,
4073,LOWER SAN FERNANDO,LOWER VAN NORMAN L,,,CA00076,-118.4812,34.2853,,LOS ANGELES,SAN FERNANDO CREEK,,0,CITY OF LOS ANGELES DEPARTMENT OF WATER AND POWER,L,,N,RE,X,U,S,1918,,1840,125,0,115,125,0,0,9843,9843,224,13.7,H,Y,8/29/2017,1,Y,"DWR, SAFETY OF DAMS",U,0,,2826986,0,0,0,,,,,,,,,CA,CA,30-JUL-18,,Brad Sherman (D),D,CA30,,0,Y,Y,Y,Y,
4074,DRINKWATER,,,,CA00077,-118.5234,34.5302,,LOS ANGELES,OFFSTREAM,9,9,CITY OF LOS ANGELES DEPARTMENT OF WATER AND POWER,L,,Y,RE,X,S,HOS,1923,,448,105,0,100,105,0,0,92,92,4,0.03,H,Y,4/10/2018,1,Y,"DWR, SAFETY OF DAMS",U,0,,107000,0,0,0,,,,,,,,,CA,CA,30-JUL-18,,Katie Hill (D),D,CA25,,0,Y,Y,Y,Y,
4075,MULHOLLAND,HOLLYWOOD RESERVOIR,,,CA00078,-118.3324,34.1179,,LOS ANGELES,WEID CANYON,,0,CITY OF LOS ANGELES DEPARTMENT OF WATER AND POWER,L,,N,PG,X,R,S,1924,,933,195,0,160,195,0,0,4036,4036,82,1,H,Y,7/13/2017,1,Y,"DWR, SAFETY OF DAMS",U,0,,303000,0,0,0,,,,,,,,,CA,CA,30-JUL-18,,Adam B. Schiff (D),D,CA28,,0,Y,Y,Y,Y,
4076,SILVER LAKE,,,,CA00081,-118.2667,34.0933,,LOS ANGELES,TR BALLONA CREEK,,0,CITY OF LOS ANGELES DEPARTMENT OF WATER AND POWER,L,,N,RE,X,S,S,1976,,760,43,0,34,43,0,0,2020,2020,77,0.12,H,Y,8/29/2017,1,Y,"DWR, SAFETY OF DAMS",U,0,,500000,0,0,0,,,,,,,,,CA,CA,30-JUL-18,,Adam B. Schiff (D),D,CA28,,0,Y,Y,Y,Y,01-DEC-15
4077,HAIWEE,SOUTH RESERVOIR,,,CA00082,-117.9531,36.1376,,INYO,ROSE VALLEY,3,3,CITY OF LOS ANGELES DEPARTMENT OF WATER AND POWER,L,,N,RE,X,S,S,1913,,1555,81,0,67,81,0,0,60600,60600,1350,89,H,Y,10/3/2017,1,Y,"DWR, SAFETY OF DAMS",U,0,,988665,0,0,0,,,,,,,,,CA,CA,30-JUL-18,,Paul Cook (R),R,CA08,,0,Y,Y,Y,Y,01-JUN-17
4078,STONE CANYON,,,,CA00083,-118.4551,34.1067,,LOS ANGELES,STONE CANYON CR,,0,CITY OF LOS ANGELES DEPARTMENT OF WATER AND POWER,L,,N,RE,X,RS,S,1924,,1150,188,0,174.8,188,0,0,10372,10372,138,1.4,H,Y,7/26/2017,1,Y,"DWR, SAFETY OF DAMS",U,0,,3346402,0,0,0,,,,,,,,,CA,CA,30-JUL-18,,Ted Lieu (D),D,CA33,,0,Y,Y,Y,Y,
4079,TINEMAHA,,,,CA00084,-118.2281,37.0558,,INYO,OWENS RIVER,15,15,CITY OF LOS ANGELES DEPARTMENT OF WATER AND POWER,L,,N,RE,X,S,OS,1928,,5800,32,0,22.5,32,0,0,16405,16405,2098,1915,H,Y,10/3/2017,1,Y,"DWR, SAFETY OF DAMS",U,0,,495900,0,0,0,,,,,,,,,CA,CA,30-JUL-18,,Paul Cook (R),R,CA08,,0,Y,Y,Y,Y,01-JUN-17
4080,UPPER FRANKLIN DAM,,,,CA00085,-118.425,34.09167,,LOS ANGELES,,"BEVERLY HILLS, CA",3,DOI NPS,F,,N,RE,,,CFS,1915,1983,260,40,0,0,40,192,150,0,150,0,0,S,Y,7/27/2006,0,N,,C,0,,0,0,0,0,DOI NPS,,,DOI NPS,DOI BR,DOI NPS,DOI NPS,,DOI NPS,CA,02-NOV-18,,Ted Lieu (D),D,CA33,UPPER FRANKLIN DAM,0,N,N,N,N,24-AUG-17
4081,UPPER SAN FERNANDO,,,,CA00086,-118.4936,34.3028,,LOS ANGELES,SAN FERNANDO CR,,0,CITY OF LOS ANGELES DEPARTMENT OF WATER AND POWER,L,,N,RE,X,S,CS,1921,,1740,82,0,75.5,82,0,0,1848,1848,78,0.53,L,N,7/20/2017,1,Y,"DWR, SAFETY OF DAMS",U,0,,572300,0,0,0,,,,,,,,,CA,CA,30-JUL-18,,Brad Sherman (D),D,CA30,,0,Y,Y,Y,Y,
4082,UPPER HOLLYWOOD,,,,CA00087,-118.3352,34.1247,,LOS ANGELES,WEID CANYON,,0,CITY OF LOS ANGELES DEPARTMENT OF WATER AND POWER,L,,N,RE,X,S,OS,1933,,368,87,0,81.5,87,0,0,196,196,8,0.37,L,N,7/13/2017,1,Y,"DWR, SAFETY OF DAMS",U,0,,155400,0,0,0,,,,,,,,,CA,CA,30-JUL-18,,Adam B. Schiff (D),D,CA28,,0,Y,Y,Y,Y,
4083,BOUQUET CANYON,BOUQUET RESERVOIR,,,CA00088,-118.3866,34.5784,,LOS ANGELES,BOUQUET CREEK,16,16,CITY OF LOS ANGELES DEPARTMENT OF WATER AND POWER,L,,Y,RE,X,R,S,1934,,1180,190,0,175,190,0,0,36505,36505,628,13.6,H,Y,7/12/2017,1,Y,"DWR, SAFETY OF DAMS",U,0,,2966000,0,0,0,,,,,,,,,CA,CA,30-JUL-18,,Katie Hill (D),D,CA25,,0,Y,Y,Y,Y,
4084,GRANT LAKE,,,,CA00089,-119.1026,37.8621,,MONO,RUSH CREEK,6,6,CITY OF LOS ANGELES DEPARTMENT OF WATER AND POWER,L,,Y,RE,X,R,S,1940,,700,87,0,72,87,0,0,47525,47525,1095,60,H,Y,10/4/2017,1,Y,"DWR, SAFETY OF DAMS",U,0,,490000,0,0,0,,,,,,,,,CA,CA,30-JUL-18,,Paul Cook (R),R,CA08,,0,Y,Y,Y,Y,
4085,LONG VALLEY,"CROWLEY, LAKE",,,CA00090,-118.7064,37.5872,,MONO,OWENS RIVER,20,20,CITY OF LOS ANGELES DEPARTMENT OF WATER AND POWER,L,,N,RE,X,RS,HRS,1941,,595,126,0,111,126,0,0,183465,183465,5280,437,H,Y,10/4/2017,1,Y,"DWR, SAFETY OF DAMS",U,0,,1045000,0,0,0,,,,,,,,,CA,CA,30-JUL-18,,Paul Cook (R),R,CA08,,0,Y,Y,Y,Y,
4086,WALKER LAKE,,,,CA00091,-119.1587,37.8775,,MONO,WALKER CREEK,6,6,CITY OF LOS ANGELES DEPARTMENT OF WATER AND POWER,L,,Y,RE,X,S,HS,,,310,12,0,7.8,12,0,0,540,540,87,6.2,L,N,10/4/2017,1,Y,"DWR, SAFETY OF DAMS",U,0,,0,0,0,0,,,,,,,,,CA,CA,30-JUL-18,,Paul Cook (R),R,CA08,,0,Y,Y,Y,Y,
4087,SARDINE LAKE,,,,CA00092,-119.197,37.858,,MONO,WALKER CREEK,,0,U.S. FOREST SERVICE,F,,N,ER,X,U,S,,,60,9,0,6.5,9,0,0,385,385,19,1.64,U,N,,0,N,,U,0,,0,0,0,0,,,,,,,,,CA,CA,30-JUL-18,,Paul Cook (R),R,CA08,,0,N,N,N,N,
4088,CHANNEL DIVERSION DIKE,,,,CA00093,-118.4886,34.2943,,LOS ANGELES,STORM DR CHANNEL,,0,CITY OF LOS ANGELES DEPARTMENT OF WATER AND POWER,L,,N,RE,X,R,C,1940,,390,42,0,34.4,42,0,0,437,437,28,6.3,L,N,8/29/2017,1,Y,"DWR, SAFETY OF DAMS",U,0,,40000,0,0,0,,,,,,,,,CA,CA,30-JUL-18,,Brad Sherman (D),D,CA30,,0,Y,Y,Y,Y,
4089,EAGLE ROCK,,,,CA00094,-118.1911,34.1463,,LOS ANGELES,OFFSTREAM,,0,CITY OF LOS ANGELES DEPARTMENT OF WATER AND POWER,L,,N,RE,X,R,OS,1953,,495,113,0,108,113,0,0,254,254,7,0,H,Y,7/21/2017,1,Y,"DWR, SAFETY OF DAMS",U,0,,322000,0,0,0,,,,,,,,,CA,CA,30-JUL-18,,Jimmy Gomez (D),D,CA34,,0,Y,Y,Y,Y,
4090,UPPER GORGE,,,,CA00095,-118.5898,37.5459,,MONO,OWENS RIVER,12,12,CITY OF LOS ANGELES DEPARTMENT OF WATER AND POWER,L,,Y,PG,X,R,CH,1953,,37,44,0,35,44,0,0,26,26,2,457,L,Y,9/28/2017,1,Y,"DWR, SAFETY OF DAMS",U,0,,3672,0,0,0,,,,,,,,,CA,CA,30-JUL-18,,Paul Cook (R),R,CA08,,0,Y,Y,Y,Y,
4091,GREEN VERDUGO,,,,CA00096,-118.3355,34.2575,,LOS ANGELES,TR TUJUNGA WASH,1,1,CITY OF LOS ANGELES DEPARTMENT OF WATER AND POWER,L,,N,RE,X,S,S,1953,,452,118,0,112,118,0,0,99,99,3,0.04,H,Y,7/20/2017,1,Y,"DWR, SAFETY OF DAMS",U,0,,97000,0,0,0,,,,,,,,,CA,CA,30-JUL-18,,Adam B. Schiff (D),D,CA28,,0,Y,Y,Y,Y,
4092,UPPER STONE CANYON,,,,CA00097,-118.4558,34.119,,LOS ANGELES,STONE CANYON CR,,0,CITY OF LOS ANGELES DEPARTMENT OF WATER AND POWER,L,,N,RE,X,S,S,1954,,740,111,0,104.5,111,0,0,425,425,14,0.66,L,N,7/26/2017,1,Y,"DWR, SAFETY OF DAMS",U,0,,331000,0,0,0,,,,,,,,,CA,CA,30-JUL-18,,Ted Lieu (D),D,CA33,,0,Y,Y,Y,Y,
4093,PLEASANT VALLEY,,,,CA00098,-118.525,37.4141,,INYO,OWENS RIVER,8,8,CITY OF LOS ANGELES DEPARTMENT OF WATER AND POWER,L,,N,RE,X,RS,HOS,1957,,530,87,0,76,87,0,0,3825,3825,115,575,H,Y,9/28/2017,1,Y,"DWR, SAFETY OF DAMS",U,0,,403000,0,0,0,,,,,,,,,CA,CA,30-JUL-18,,Paul Cook (R),R,CA08,,0,Y,Y,Y,Y,
4094,YARNELL DEBRIS BASIN,,,,CA00099,-118.4863,34.3055,,LOS ANGELES,TR BULL CANYON,,0,CITY OF LOS ANGELES DEPARTMENT OF WATER AND POWER,L,,N,RE,X,R,CD,1963,,1290,42,0,30,42,0,0,77.5,77.5,10,1.87,L,N,4/10/2018,1,Y,"DWR, SAFETY OF DAMS",U,0,,93000,0,0,0,,,,,,,,,CA,CA,30-JUL-18,,Brad Sherman (D),D,CA30,,0,Y,Y,Y,Y,
4095,SANTA YNEZ CANYON,,,,CA00100,-118.5674,34.0725,,LOS ANGELES,TR SANTA YNEZ CAN,2,2,CITY OF LOS ANGELES DEPARTMENT OF WATER AND POWER,L,,N,RE,X,R,OS,1968,,455,157,0,150,157,0,0,356,356,9,0.23,H,Y,7/27/2017,1,Y,"DWR, SAFETY OF DAMS",U,0,,623000,0,0,0,,,,,,,,,CA,CA,30-JUL-18,,Ted Lieu (D),D,CA33,,0,Y,Y,Y,Y,
4096,LOWER VAN NORMAN BYPASS,,,,CA00101,-118.485,34.2912,,LOS ANGELES,OFFSTREAM,,0,CITY OF LOS ANGELES DEPARTMENT OF WATER AND POWER,L,,N,RE,X,R,OS,1970,,600,78,0,69.3,78,0,0,240,240,12,0.03,L,N,7/20/2017,1,Y,"DWR, SAFETY OF DAMS",U,0,,500000,0,0,0,,,,,,,,,CA,CA,30-JUL-18,,Brad Sherman (D),D,CA30,,0,Y,Y,Y,Y,
4097,MILLIKEN,,,,CA00102,-122.2289,38.3773,,NAPA,MILLIKEN CREEK,5.7,5.7,CITY OF NAPA,L,,N,VA,X,R,S,1924,,647,110,0,110,110,0,0,1980,1980,44,9.3,H,Y,11/21/2017,1,Y,"DWR, SAFETY OF DAMS",U,0,,19320,0,0,0,,,,,,,,,CA,CA,30-JUL-18,,Mike Thompson (D),D,CA05,,0,Y,Y,Y,Y,
4098,CONN CREEK,HENNESSEY,,,CA00104,-122.3737,38.4821,,NAPA,CONN CREEK,4.3,4.3,CITY OF NAPA,L,,N,RE,X,RS,S,1946,,700,125,0,110,125,0,0,31000,31000,790,54,H,Y,11/21/2017,1,Y,"DWR, SAFETY OF DAMS",U,0,,500000,0,0,0,,,,,,,,,CA,CA,30-JUL-18,,Mike Thompson (D),D,CA05,,0,Y,Y,Y,Y,
4099,BARRETT,,,,CA00106,-116.6714,32.6796,,SAN DIEGO,COTTONWOOD CR,5,5,CITY OF SAN DIEGO,L,,Y,PG,X,R,S,1922,,750,161,0,151,161,0,0,44755,44755,891,252,H,Y,11/7/2017,1,Y,"DWR, SAFETY OF DAMS",U,0,,139569,0,0,0,,,,,,,,,CA,CA,30-JUL-18,,Juan Vargas (D),D,CA51,,0,Y,Y,Y,Y,
4100,CHOLLAS,,,,CA00107,-117.0649,32.738,,SAN DIEGO,TR CHOLLAS CREEK,0.5,0.5,CITY OF SAN DIEGO,L,,N,RE,X,S,OS,1901,,565,50,0,40.4,50,0,0,310,310,18,0.1,H,Y,11/6/2017,1,Y,"DWR, SAFETY OF DAMS",U,0,,63426,0,0,0,,,,,,,,,CA,CA,30-JUL-18,,Juan Vargas (D),D,CA51,,0,Y,Y,Y,Y,
4101,"HODGES, LAKE",,,,CA00108,-117.1292,33.0459,,SAN DIEGO,SAN DIEGUITO RIVER,3,3,CITY OF SAN DIEGO,L,,N,MV,X,R,S,1918,,729,131,0,116,131,0,0,37700,37700,1317,303,H,Y,9/14/2017,1,Y,"DWR, SAFETY OF DAMS",U,0,,18128,0,0,0,,,,,,,,,CA,CA,30-JUL-18,,Scott H. Peters (D),D,CA52,,0,Y,Y,Y,Y,
4102,SAVAGE,LOWER OTAY RESERVOIR,,,CA00109,-116.9274,32.6094,,SAN DIEGO,OTAY RIVER,9,9,CITY OF SAN DIEGO,L,,N,PG,X,R,S,1919,,750,149,0,144,149,0,0,56500,56500,1110,101.2,H,Y,11/6/2017,1,Y,"DWR, SAFETY OF DAMS",U,0,,83000,0,0,0,,,,,,,,,CA,CA,30-JUL-18,,Juan Vargas (D),D,CA51,,0,Y,Y,Y,Y,
4103,MORENA,,,,CA00110,-116.5479,32.686,,SAN DIEGO,COTTONWOOD CR,8,8,CITY OF SAN DIEGO,L,,Y,ER,X,R,S,1912,,550,181,0,167,181,0,0,50206,50206,1475,114,H,Y,11/7/2017,1,Y,"DWR, SAFETY OF DAMS",U,0,,335300,0,0,0,,,,,,,,,CA,CA,30-JUL-18,,Juan Vargas (D),D,CA51,,0,Y,Y,Y,Y,
4104,EL CAPITAN,,,,CA00111,-116.8093,32.8856,,SAN DIEGO,SAN DIEGO RIVER,7,7,CITY OF SAN DIEGO,L,,Y,RE,X,R,S,1934,,1170,237,0,217,237,0,0,112800,112800,1562,190,H,Y,2/8/2018,1,Y,"DWR, SAFETY OF DAMS",U,0,,2679680,0,0,0,,,,,,,,,CA,CA,30-JUL-18,,Duncan Hunter (R),R,CA50,,0,Y,Y,Y,Y,
4105,UPPER OTAY,,,,CA00112,-116.9322,32.649,,SAN DIEGO,PROCTOR VAL CR,9,9,CITY OF SAN DIEGO,L,,N,VA,X,R,S,1901,,283,78,0,56,78,0,0,2825,2825,88,12.6,L,N,11/6/2017,1,Y,"DWR, SAFETY OF DAMS",U,0,,3300,0,0,0,,,,,,,,,CA,CA,30-JUL-18,,Duncan Hunter (R),R,CA50,,0,Y,Y,Y,Y,
4106,SAN VICENTE,,,,CA00113,-116.9272,32.9116,,SAN DIEGO,SAN VICENTE CREEK,3,3,CITY OF SAN DIEGO,L,,N,RC,X,R,CS,1943,,1425,338,0,324.5,338,0,0,245000,245000,1675,74.2,H,Y,3/8/2018,1,Y,"DWR, SAFETY OF DAMS",U,0,,911800,0,0,0,,,,,,,,,CA,CA,30-JUL-18,,Duncan Hunter (R),R,CA50,,0,Y,Y,Y,Y,
4107,SUTHERLAND,,,,CA00114,-116.7852,33.1182,,SAN DIEGO,SANTA YSABEL CREEK,6,6,CITY OF SAN DIEGO,L,,Y,MV,X,R,CS,1954,,1020,162,0,145,162,0,0,29000,29000,550,54,H,Y,3/8/2018,1,Y,"DWR, SAFETY OF DAMS",U,0,,51500,0,0,0,,,,,,,,,CA,CA,30-JUL-18,,Duncan Hunter (R),R,CA50,,0,Y,Y,Y,Y,
4108,MIRAMAR,,,,CA00115,-117.1076,32.9156,,SAN DIEGO,BIG SURR CREEK,1,1,CITY OF SAN DIEGO,L,,N,RE,X,S,S,1960,,2265,165,0,159,165,0,0,7250,7250,162,1.03,H,Y,2/7/2018,1,Y,"DWR, SAFETY OF DAMS",U,0,,834000,0,0,0,,,,,,,,,CA,CA,30-JUL-18,,Scott H. Peters (D),D,CA52,,0,Y,Y,Y,Y,
4109,MURRAY,,,,CA00116,-117.0469,32.7823,,SAN DIEGO,CHAPARRAL,0.5,0.5,CITY OF SAN DIEGO,L,,N,MV,X,R,S,1918,,870,110,0,104,110,0,0,4818,4818,200,3.6,H,Y,10/9/2017,1,Y,"DWR, SAFETY OF DAMS",U,0,,8224,0,0,0,,,,,,,,,CA,CA,30-JUL-18,,Susan A. Davis (D),D,CA53,,0,Y,Y,Y,Y,
4110,BERNARDO RESERVOIR,,,,CA00118,-117.0835,33.0077,,SAN DIEGO,OFFSTREAM,0.5,0.5,CITY OF SAN DIEGO,L,,N,RE,X,R,S,1964,,830,54,0,51,54,0,0,30,30,2,0,H,Y,2/8/2018,1,Y,"DWR, SAFETY OF DAMS",U,0,,81500,0,0,0,,,,,,,,,CA,CA,30-JUL-18,,Scott H. Peters (D),D,CA52,,0,Y,Y,Y,Y,
4111,EARLY INTAKE,,,,CA00120,-119.9569,37.8755,,TUOLUMNE,TUOLUMNE RIVER,23,23,SAN FRANCISCO PUBLIC UTILITIES COMMISSION,L,,Y,VA,X,R,CHS,1925,,262,56,0,46,56,0,0,115,115,7,488,L,Y,1/5/2018,1,Y,"DWR, SAFETY OF DAMS",U,0,,16564,0,0,0,,,,,,,,,CA,CA,30-JUL-18,,Tom McClintock (R),R,CA04,,0,Y,Y,Y,Y,18-APR-16
4112,LAKE ELEANOR,,,,CA00121,-119.8818,37.974,,TUOLUMNE,ELEANOR CREEK,30,30,SAN FRANCISCO PUBLIC UTILITIES COMMISSION,L,,N,MV,X,R,HS,1918,,1260,61,0,61,61,0,0,28600,28600,953,80.4,H,Y,4/24/2018,1,Y,"DWR, SAFETY OF DAMS",U,0,,11640,0,0,0,,,,,,,,,CA,CA,30-JUL-18,,Tom McClintock (R),R,CA04,,0,Y,Y,Y,Y,18-APR-16
4113,MOCCASIN LOWER,,,,CA00122,-120.3057,37.8123,,TUOLUMNE,MOCCASIN CREEK,27,27,SAN FRANCISCO PUBLIC UTILITIES COMMISSION,L,,N,RE,X,R,HOS,1930,,720,60,0,50.5,60,0,0,554,554,29,25.9,H,Y,4/25/2018,1,Y,"DWR, SAFETY OF DAMS",U,0,,130000,0,0,0,,,,,,,,,CA,CA,30-JUL-18,,Tom McClintock (R),R,CA04,,0,Y,Y,Y,Y,18-APR-16
4114,O' SHAUGHNESSY,HETCH HETCHY RES,,,CA00123,-119.789,37.9484,,TUOLUMNE,TUOLUMNE RIVER,33,33,SAN FRANCISCO PUBLIC UTILITIES COMMISSION,L,,N,PG,X,R,HS,1923,,900,312,0,306,312,0,0,360000,360000,1972,459,H,Y,4/23/2018,1,Y,"DWR, SAFETY OF DAMS",U,0,,662605,0,0,0,,,,,,,,,CA,CA,30-JUL-18,,Tom McClintock (R),R,CA04,,0,Y,Y,Y,Y,18-APR-16
4115,PRIEST,,,,CA00124,-120.2674,37.8005,,TUOLUMNE,RATTLESNAKE CRK,6,6,SAN FRANCISCO PUBLIC UTILITIES COMMISSION,L,,N,RE,X,RS,HOS,1923,,1000,168,0,157.5,168,0,0,2067.4,2067.4,45.8,0,H,Y,4/24/2018,1,Y,"DWR, SAFETY OF DAMS",U,0,,734326,0,0,0,,,,,,,,,CA,CA,30-JUL-18,,Tom McClintock (R),R,CA04,,0,Y,Y,Y,Y,18-APR-16
4116,CHERRY VALLEY,LLOYD OR CHERRY LAKE,,,CA00125,-119.9147,37.9743,,TUOLUMNE,CHERRY CREEK,30,30,SAN FRANCISCO PUBLIC UTILITIES COMMISSION,L,,Y,RE,X,R,CHS,1956,,2630,315,0,302.5,315,0,0,273500,273500,1535,114,H,Y,4/24/2018,1,Y,"DWR, SAFETY OF DAMS",U,0,,7000000,0,0,0,,,,,,,,,CA,CA,30-JUL-18,,Tom McClintock (R),R,CA04,,0,Y,Y,Y,Y,18-APR-16
4117,CALAVERAS,,,,CA00126,-121.8185,37.4929,,ALAMEDA,CALAVERAS CREEK,7,7,CITY AND COUNTY OF SAN FRANCISCO,L,,N,RE,X,S,S,1925,,1200,210,0,187.6,210,0,0,100000,100000,1450,98.4,H,Y,1/24/2012,1,Y,"DWR, SAFETY OF DAMS",U,0,,3461000,0,0,0,,,,,,,,,CA,CA,30-JUL-18,,Eric Swalwell (D),D,CA15,,0,Y,Y,Y,Y,
4118,LOWER CRYSTAL SPRINGS,CRYSTAL SPRINGS RES,,,CA00127,-122.3616,37.5283,,SAN MATEO,SAN MATEO CREEK,2,2,CITY AND COUNTY OF SAN FRANCISCO,L,,N,PG,X,R,S,1888,,600,149,0,138.8,149,0,0,57910,57910,1323,28.71,H,Y,3/21/2018,1,Y,"DWR, SAFETY OF DAMS",U,0,,157200,0,0,0,,,,,,,,,CA,CA,30-JUL-18,,Jackie Speier (D),D,CA14,,0,Y,Y,Y,Y,
4119,PILARCITOS,,,,CA00128,-122.4233,37.5472,,SAN MATEO,PILARCITOS CRK,10,10,CITY AND COUNTY OF SAN FRANCISCO,L,,N,RE,X,R,S,1866,,520,103,0,95.8,103,0,0,3100,3100,109,3.8,H,Y,9/7/2017,1,Y,"DWR, SAFETY OF DAMS",U,0,,371200,0,0,0,,,,,,,,,CA,CA,30-JUL-18,,Jackie Speier (D),D,CA14,,0,Y,Y,Y,Y,
4120,SAN ANDREAS,,,,CA00129,-122.4129,37.5798,,SAN MATEO,TR SAN MATEO CR,6,6,CITY AND COUNTY OF SAN FRANCISCO,L,,N,RE,X,S,S,1870,,727,107,0,97,107,0,0,19027,19027,550,4.4,H,Y,9/7/2017,1,Y,"DWR, SAFETY OF DAMS",U,0,,540000,0,0,0,,,,,,,,,CA,CA,30-JUL-18,,Jackie Speier (D),D,CA14,,0,Y,Y,Y,Y,02-DEC-15
4121,STANFORD HEIGHTS,STANFORD HEIGHTS,,,CA00130,-122.4509,37.7416,,SAN FRANCISCO,OFFSTREAM,,0,CITY AND COUNTY OF SAN FRANCISCO,L,,N,RE,X,S,S,1928,,1480,31,0,28.2,31,0,0,37,37,2,0,H,Y,3/6/2018,1,Y,"DWR, SAFETY OF DAMS",U,0,,0,0,0,0,,,,,,,,,CA,CA,30-JUL-18,,Nancy Pelosi (D),D,CA12,,0,Y,Y,Y,Y,15-DEC-15
4122,UNIVERSITY MOUND NORTH BASIN,,,,CA00131,-122.4116,37.7257,,SAN FRANCISCO,OFFSTREAM,,0,CITY AND COUNTY OF SAN FRANCISCO,L,,N,RE,X,R,S,1885,,2422,17,0,15.5,17,0,0,182,182,10,0,H,Y,3/7/2018,1,Y,"DWR, SAFETY OF DAMS",U,0,,0,0,0,0,,,,,,,,,CA,CA,30-JUL-18,,Nancy Pelosi (D),D,CA12,,0,Y,Y,Y,Y,15-DEC-15
4123,JAMES H TURNER,SAN ANTONIO RES,,,CA00132,-121.8462,37.5759,,ALAMEDA,SAN ANTONIO CREEK,3,3,CITY AND COUNTY OF SAN FRANCISCO,L,,N,RE,X,RS,S,1964,,2160,193,0,175,193,0,0,50500,50500,825,39.7,H,Y,10/18/2017,1,Y,"DWR, SAFETY OF DAMS",U,0,,3240000,0,0,0,,,,,,,,,CA,CA,30-JUL-18,,Eric Swalwell (D),D,CA15,,0,Y,Y,Y,Y,12-JUL-12
4124,UNIVERSITY MOUND SOUTH BASIN,,,,CA00133,-122.4122,37.7232,,SAN FRANCISCO,OFFSTREAM,,0,CITY AND COUNTY OF SAN FRANCISCO,L,,N,RE,X,RS,S,1937,,1150,61,0,59.5,61,0,0,250,250,11,0,H,Y,3/7/2018,1,Y,"DWR, SAFETY OF DAMS",U,0,,170000,0,0,0,,,,,,,,,CA,CA,30-JUL-18,,Nancy Pelosi (D),D,CA12,,0,Y,Y,Y,Y,15-DEC-15
4125,SUNSET NORTH BASIN,SUNSET RESERVOIR,,,CA00134,-122.4831,37.7517,,SAN FRANCISCO,OFFSTREAM,,0,CITY AND COUNTY OF SAN FRANCISCO,L,,N,RE,X,S,S,1938,,2300,74,0,72,74,0,0,275,275,12,0,H,Y,3/6/2018,1,Y,"DWR, SAFETY OF DAMS",U,0,,320000,0,0,0,,,,,,,,,CA,CA,30-JUL-18,,Nancy Pelosi (D),D,CA12,,0,Y,Y,Y,Y,15-DEC-15
4126,SUTRO RESERVOIR,,,,CA00135,-122.4553,37.752,,SAN FRANCISCO,OFFSTREAM,,0,CITY AND COUNTY OF SAN FRANCISCO,L,,N,RE,X,S,S,1952,,850,55,0,53.5,55,0,0,96,96,6,0,H,Y,3/6/2018,1,Y,"DWR, SAFETY OF DAMS",U,0,,196500,0,0,0,,,,,,,,,CA,CA,30-JUL-18,,Nancy Pelosi (D),D,CA12,,0,Y,Y,Y,Y,15-DEC-15
4127,SUNSET SOUTH BASIN,,,,CA00136,-122.4855,37.7498,,SAN FRANCISCO,OFFSTREAM,,0,CITY AND COUNTY OF SAN FRANCISCO,L,,N,RE,X,R,S,1960,,980,34,0,32,34,0,0,268,268,12,0,H,Y,3/6/2018,1,Y,"DWR, SAFETY OF DAMS",U,0,,5425,0,0,0,,,,,,,,,CA,CA,30-JUL-18,,Nancy Pelosi (D),D,CA12,,0,Y,Y,Y,Y,15-DEC-15
4128,GIBRALTAR,,,,CA00138,-119.6883,34.5269,,SANTA BARBARA,SANTA YNEZ RV,20,20,CITY OF SANTA BARBARA,L,,Y,VA,X,R,CS,1920,,600,169,0,167,169,0,0,9998,9998,335,214,H,Y,6/12/2018,1,Y,"DWR, SAFETY OF DAMS",U,0,,75000,0,0,0,,,,,,,,,CA,CA,30-JUL-18,,Salud O. Carbajal (D),D,CA24,,0,Y,Y,Y,Y,
4129,LAKE CURRY,,,,CA00140,-122.1258,38.3574,,NAPA,GORDON VALLEY CR,10,10,CITY OF VALLEJO,L,,N,RE,X,S,CS,1926,,572,107,0,97,107,0,0,10700,10700,377,17,H,Y,2/8/2018,1,Y,"DWR, SAFETY OF DAMS",U,0,,272000,0,0,0,,,,,,,,,CA,CA,30-JUL-18,,Mike Thompson (D),D,CA05,,0,Y,Y,Y,Y,20-SEP-15
4130,LAKE MADIGAN,,,,CA00141,-122.1939,38.3074,,SOLANO,WILD HORSE CREEK,2,2,CITY OF VALLEJO,L,,N,RE,X,R,S,1908,,665,89,0,77,89,0,0,1175,1175,72,1.5,H,Y,2/8/2018,1,Y,"DWR, SAFETY OF DAMS",U,0,,100000,0,0,0,,,,,,,,,CA,CA,30-JUL-18,,John Garamendi (D),D,CA03,,0,Y,Y,Y,Y,20-SEP-15
4131,LAKE FREY,,,,CA00142,-122.1913,38.2921,,SOLANO,WILD HORSE CREEK,2,2,CITY OF VALLEJO,L,,N,RE,X,RS,S,1894,,575,83,0,77.2,83,0,0,638,638,62,3.06,H,Y,2/8/2018,1,Y,"DWR, SAFETY OF DAMS",U,0,,0,0,0,0,,,,,,,,,CA,CA,30-JUL-18,,John Garamendi (D),D,CA03,,0,Y,Y,Y,Y,20-SEP-15
4132,FLEMING HILL NO. 2,,,,CA00143,-122.2427,38.1374,,SOLANO,TR NAPA RIVER,,0,CITY OF VALLEJO,L,,N,RE,X,R,S,1912,,570,39.25,0,36.4,39.25,0,0,33,33,2,0,H,Y,2/8/2018,1,Y,"DWR, SAFETY OF DAMS",U,0,,37000,0,0,0,,,,,,,,,CA,CA,30-JUL-18,,Mike Thompson (D),D,CA05,,0,Y,Y,Y,Y,20-SEP-15
4133,SWANZY LAKE,,,,CA00144,-122.2273,38.0765,,SOLANO,TR CARQUINEZ STR,,0,CITY OF VALLEJO,L,,N,RE,X,R,S,1931,,375,86,0,82.3,86,0,0,107,107,4,0.1,H,Y,2/6/2018,1,Y,"DWR, SAFETY OF DAMS",U,0,,84400,0,0,0,,,,,,,,,CA,CA,30-JUL-18,,Mike Thompson (D),D,CA05,,0,Y,Y,Y,Y,20-SEP-15
4134,"CHABOT, LAKE",,,,CA00145,-122.2396,38.1405,,SOLANO,BLUE ROCK SPRGS CRK,,0,CITY OF VALLEJO,L,,N,RE,X,S,CRS,1870,,395,47,0,30.5,47,0,0,504,504,61,6.26,H,Y,2/6/2018,1,Y,"DWR, SAFETY OF DAMS",U,0,,75000,0,0,0,,,,,,,,,CA,CA,30-JUL-18,,Mike Thompson (D),D,CA05,,0,Y,Y,Y,Y,20-SEP-15
4135,SUMMIT RESERVOIR,,,,CA00146,-122.225,38.1544,,SOLANO,OFFSTREAM,,0,CITY OF VALLEJO,L,,N,RE,X,RS,S,1968,,900,124,0,121,124,0,0,220,220,7,0.01,H,Y,2/6/2018,1,Y,"DWR, SAFETY OF DAMS",U,0,,267000,0,0,0,,,,,,,,,CA,CA,30-JUL-18,,Mike Thompson (D),D,CA05,,0,Y,Y,Y,Y,20-SEP-15
4136,ST. HELENA LOWER,,,,CA00148,-122.4912,38.5073,,NAPA,TR NAPA RIVER,0.5,0.5,CITY OF SAINT HELENA,L,,N,RE,X,R,S,1878,,856,44,0,42,44,0,0,210,210,12,0.14,H,N,8/30/2017,1,Y,"DWR, SAFETY OF DAMS",U,0,,30000,0,0,0,,,,,,,,,CA,CA,30-JUL-18,,Mike Thompson (D),D,CA05,,0,Y,Y,Y,Y,
4137,BELL CANYON,,,,CA00149,-122.4834,38.555,,NAPA,BELL CREEK,3.7,3.7,CITY OF SAINT HELENA,L,,N,RE,X,R,S,1959,,500,95,0,87,95,0,0,2530,2530,76,5.53,H,Y,8/30/2017,1,Y,"DWR, SAFETY OF DAMS",U,0,,286000,0,0,0,,,,,,,,,CA,CA,30-JUL-18,,Mike Thompson (D),D,CA05,,0,Y,Y,Y,Y,
4138,DEVILS CANYON DIKE #1,,,,CA00150,-117.3329,34.1898,,SAN BERNARDINO,DEVILS CANYON DIKE 1,1,1,COUNTY OF SAN BERNARDINO DEPARTMENT OF PUBLIC WORKS,L,,N,RE,X,S,CS,1934,,3290,15,0,12,15,0,0,79,79,13,6.3,H,Y,2/6/2018,1,Y,"DWR, SAFETY OF DAMS",U,0,,33339,0,0,0,,,,,,,,,CA,CA,30-JUL-18,,Pete Aguilar (D),D,CA31,,0,Y,Y,Y,Y,23-DEC-15
4139,PERRIS HILL RES,,,,CA00151,-117.264,34.1331,,SAN BERNARDINO,OFFSTREAM,2,2,CITY OF SAN BERNARDINO,L,,N,OT,X,R,S,1962,,1150,31,0,30.4,31,0,0,31,31,1,0,H,N,2/13/2018,1,Y,"DWR, SAFETY OF DAMS",U,0,,0,0,0,0,,,,,,,,,CA,CA,30-JUL-18,,Pete Aguilar (D),D,CA31,,0,Y,Y,Y,Y,
4140,WHITTIER RES NO 4,,,,CA00153,-118.0451,33.9975,,LOS ANGELES,TR SAN GABRIEL RIV,,0,CITY OF WHITTIER WATER DISTRICT,L,,N,RE,X,U,S,1931,,190,55,0,53,55,0,0,32,32,1,0.08,L,N,3/8/2018,1,Y,"DWR, SAFETY OF DAMS",U,0,,34500,0,0,0,,,,,,,,,CA,CA,30-JUL-18,,Linda T. S‡nchez (D),D,CA38,,0,Y,Y,Y,Y,
4141,MORRIS S. JONES,,,,CA00154,-118.0759,34.1631,,LOS ANGELES,,,0,PASADENA CITY DEPARTMENT OF WATER AND POWER,L,,N,RE,X,S,S,1952,,1470,49,0,45.9,49,0,0,153.3,153.3,6.3,0,H,Y,3/8/2018,1,Y,"DWR, SAFETY OF DAMS",U,0,,68000,0,0,0,,,,,,,,,CA,CA,30-JUL-18,,Judy Chu (D),D,CA27,,0,Y,Y,Y,Y,
4142,MUNICIPAL,SUISUN RESERVOIR,,,CA00155,-122.1444,38.2974,,SOLANO,TR SUISUN CRK,2,2,PRIVATE ENTITY,P,,N,RE,X,R,S,1939,,430,56,0,51.5,56,0,0,169,169,10,0.43,H,N,3/27/2018,1,Y,"DWR, SAFETY OF DAMS",U,0,,0,0,0,0,,,,,,,,,CA,CA,30-JUL-18,,John Garamendi (D),D,CA03,,0,Y,Y,Y,Y,
4143,NEWELL,LOCH LOMOND,,,CA00156,-122.0742,37.1035,,SANTA CRUZ,NEWELL CREEK,4,4,CITY OF SANTA CRUZ,L,,N,RE,X,R,CRS,1960,,750,182,0,169,182,0,0,8991,8991,172,0,H,Y,3/2/2018,1,Y,"DWR, SAFETY OF DAMS",U,0,,1200000,0,0,0,,,,,,,,,CA,CA,30-JUL-18,,Anna G. Eshoo (D),D,CA18,,0,Y,Y,Y,Y,
4144,CHERRY FLAT,,,,CA00158,-121.758,37.3971,,SANTA CLARA,PENITENCIA CR,3,3,CITY OF SAN JOSE,L,,N,RE,X,S,RS,1936,,230,60,0,52,60,0,0,500,500,25,2.41,H,Y,1/23/2018,1,Y,"DWR, SAFETY OF DAMS",U,0,,63726,0,0,0,,,,,,,,,CA,CA,30-JUL-18,,Zoe Lofgren (D),D,CA19,,0,Y,Y,Y,Y,
4145,"TEMESCAL, LAKE",,,,CA00160,-122.2312,37.848,,ALAMEDA,TEMESCAL CREEK,,0,EAST BAY REGIONAL PARK DISTRICT,U,,N,RE,X,S,S,1869,,650,116,0,101.5,116,0,0,200,200,15,2.7,H,N,11/29/2017,1,Y,"DWR, SAFETY OF DAMS",U,0,,262292,0,0,0,,,,,,,,,CA,CA,30-JUL-18,,Barbara Lee (D),D,CA13,,0,Y,Y,Y,Y,
4146,C L TILDEN PARK,LAKE ANZA,,,CA00161,-122.2504,37.8977,,CONTRA COSTA,WILDCAT CREEK,5,5,EAST BAY REGIONAL PARK DISTRICT,U,,N,RE,X,S,CRS,1938,,355,88,0,82,88,0,0,268,268,10,1.56,H,N,11/29/2017,1,Y,"DWR, SAFETY OF DAMS",U,0,,114252,0,0,0,,,,,,,,,CA,CA,30-JUL-18,,Mark DeSaulnier (D),D,CA11,,0,Y,Y,Y,Y,
4147,CENTRAL,,,,CA00162,-122.224,37.7957,,ALAMEDA,OFFSTREAM,,0,EAST BAY MUNICIPAL UTILITY DISTRICT,U,,N,RE,X,S,S,1910,,929,55,0,52.8,55,0,0,485,485,19,0,H,Y,5/24/2018,1,Y,"DWR, SAFETY OF DAMS",U,0,,170000,0,0,0,,,,,,,,,CA,CA,30-JUL-18,,Barbara Lee (D),D,CA13,,0,Y,Y,Y,Y,
4148,LAFAYETTE,,,,CA00163,-122.1371,37.8841,,CONTRA COSTA,LAFAYETTE CREEK,,0,EAST BAY MUNICIPAL UTILITY DISTRICT,U,,N,RE,X,RS,S,1929,,1200,132,0,115.6,132,0,0,4250,4250,126,1.34,H,Y,7/12/2017,1,Y,"DWR, SAFETY OF DAMS",U,0,,1762875,0,0,0,,,,,,,,,CA,CA,30-JUL-18,,Mark DeSaulnier (D),D,CA11,,0,Y,Y,Y,Y,
4149,PARDEE,,,,CA00164,-120.85,38.2571,"S.26,T.5N,R.10E","AMADOR, CALAVERAS",MOKELUMNE RIVER,CLEMENTS,20,EAST BAY MUNICIPAL UTILITY DISTRICT,U,,N,CNPG,,R,FHRS,1929,,1337,351.5,346.5,0,351.5,0,198000,0,198000,2200,576,H,Y,4/24/2018,1,Y,"DWR, SAFETY OF DAMS",N,0,,617000,0,0,0,,,,FERC,FERC,,,,FERC,CA,05-AUG-18,,Tom McClintock (R),R,CA04,,4,Y,Y,Y,Y,28-FEB-18
4150,PARDEE SOUTH SPILLWAY,,,,CA00164,-120.8465,38.2527,,"AMADOR, CALAVERAS",MOKELUMNE RIVER,CLEMENTS,20,EAST BAY MUNICIPAL UTILITY DISTRICT,U,,N,CN,,R,FHRS,,,800,10,0,0,10,184000,198000,0,198000,2200,0,H,Y,4/25/2018,1,N,,U,800,,0,0,0,0,,,,FERC,FERC,,,,FERC,CA,05-AUG-18,,Tom McClintock (R),R,CA04,S002,4,N,N,N,N,28-FEB-18
4151,JACKSON CREEK SPILLWAY,JACKSON CREEK DAM,,,CA00164,-120.8663,38.2898,,"AMADOR, CALAVERAS",MOKELUMNE RIVER,BUENA VISTA,4,EAST BAY MUNICIPAL UTILITY DISTRICT,U,,N,CNRE,,R,FHRS,,,1360,37,0,0,37,0,198000,0,198000,2200,0,H,Y,4/24/2018,1,N,,N,0,,0,0,0,0,,,,FERC,FERC,,,,FERC,CA,05-AUG-18,,Tom McClintock (R),R,CA04,S001,4,N,N,N,N,28-FEB-18
4152,CHABOT,,,,CA00165,-122.1228,37.7297,,ALAMEDA,SAN LEANDRO CREEK,,0,EAST BAY MUNICIPAL UTILITY DISTRICT,U,,N,RE,X,S,S,1892,,450,142,0,119.2,142,0,0,10281,10281,340,41.4,H,Y,10/19/2017,1,Y,"DWR, SAFETY OF DAMS",U,0,,622000,0,0,0,,,,,,,,,CA,CA,30-JUL-18,,Barbara Lee (D),D,CA13,,0,Y,Y,Y,Y,
4153,SAN PABLO,,,,CA00166,-122.2598,37.9446,,CONTRA COSTA,SAN PABLO CREEK,1,1,EAST BAY MUNICIPAL UTILITY DISTRICT,U,,N,RE,X,R,S,1920,,1250,170,0,156.6,170,0,0,43193,43193,854,32.15,H,Y,11/15/2017,1,Y,"DWR, SAFETY OF DAMS",U,0,,2200000,0,0,0,,,,,,,,,CA,CA,30-JUL-18,,Mark DeSaulnier (D),D,CA11,,0,Y,Y,Y,Y,
4154,PIEDMONT,RESERVOIR NO 2,,,CA00170,-122.2234,37.8282,,ALAMEDA,OFFSTREAM,,0,EAST BAY MUNICIPAL UTILITY DISTRICT,U,,N,RE,X,R,S,1905,,250,64,0,62,64,0,0,60,60,3,0,H,Y,8/30/2017,1,Y,"DWR, SAFETY OF DAMS",U,0,,32290,0,0,0,,,,,,,,,CA,CA,30-JUL-18,,Barbara Lee (D),D,CA13,,0,Y,Y,Y,Y,
4155,BRIONES,,,,CA00172,-122.2124,37.9148,,CONTRA COSTA,BEAR CREEK,6,6,EAST BAY MUNICIPAL UTILITY DISTRICT,U,,N,RE,X,R,CS,1964,,2100,273,0,261.2,273,0,0,67520,67520,735,8.6,H,Y,3/20/2018,1,Y,"DWR, SAFETY OF DAMS",U,0,,9912000,0,0,0,,,,,,,,,CA,CA,30-JUL-18,,Mark DeSaulnier (D),D,CA11,,0,Y,Y,Y,Y,
4156,CAMANCHE MAIN,,,,CA00173,-121.0229,38.2241,"S.8,T.4N,R.9E",SAN JOAQUIN,MOKELUMNE RIVER,CLEMENTS,8,EAST BAY MUNICIPAL UTILITY DISTRICT,U,,N,ER,,R,CFHRS,1964,,2500,171,0,0,171,223800,417000,0,417000,7600,619,H,Y,4/25/2018,1,Y,"DWR, SAFETY OF DAMS",U,400,,0,0,0,0,,,,FERC,FERC,,,,FERC,CA,05-AUG-18,,Jerry McNerney (D),D,CA09,,7,Y,Y,Y,Y,28-FEB-18
4157,CAMANCHE DIKE NO. 3,,,,CA00173,-121.0177,38.2104,,SAN JOAQUIN,MOKELUMNE RIVER,CLEMENTS,8,EAST BAY MUNICIPAL UTILITY DISTRICT,U,,N,RE,,R,CFHRS,,,4500,50,0,0,50,0,417000,0,417000,7600,0,H,Y,4/26/2018,1,N,,N,0,,0,0,0,0,,,,FERC,FERC,,,,FERC,CA,05-AUG-18,,Jerry McNerney (D),D,CA09,S003,7,N,N,N,N,28-FEB-18
4158,CAMANCHE DIKE NO. 1,,,,CA00173,-120.9853,38.2074,,SAN JOAQUIN,MOKELUMNE RIVER,CLEMENTS,8,EAST BAY MUNICIPAL UTILITY DISTRICT,U,,N,RE,,R,CFHRS,,,6000,90,0,0,90,0,417000,0,417000,7600,0,H,Y,4/25/2018,1,N,,N,0,,0,0,0,0,,,,FERC,FERC,,,,FERC,CA,05-AUG-18,,Tom McClintock (R),R,CA04,S001,7,N,N,N,N,28-FEB-18
4159,CAMANCHE DIKE NO. 4,,,,CA00173,-121.0175,38.2285,,SAN JOAQUIN,MOKELUMNE RIVER,CLEMENTS,8,EAST BAY MUNICIPAL UTILITY DISTRICT,U,,N,RE,,R,CFHRS,,,500,35,0,0,35,0,417000,0,417000,7600,0,H,Y,4/26/2018,1,N,,N,0,,0,0,0,0,,,,FERC,FERC,,,,FERC,CA,05-AUG-18,,Jerry McNerney (D),D,CA09,S004,7,N,N,N,N,28-FEB-18
4160,CAMANCHE DIKE NO. 5,,,,CA00173,-121.0062,38.2398,,SAN JOAQUIN,MOKELUMNE RIVER,CLEMENTS,8,EAST BAY MUNICIPAL UTILITY DISTRICT,U,,N,RE,,R,CFHRS,,,1200,50,0,0,50,0,417000,0,417000,7600,0,H,Y,4/26/2018,1,N,,N,0,,0,0,0,0,,,,FERC,FERC,,,,FERC,CA,05-AUG-18,,Jerry McNerney (D),D,CA09,S005,7,N,N,N,N,28-FEB-18
4161,CAMANCHE DIKE NO. 2,,,,CA00173,-121.0087,38.2106,,SAN JOAQUIN,MOKELUMNE RIVER,CLEMENTS,8,EAST BAY MUNICIPAL UTILITY DISTRICT,U,,N,RE,,R,CFHRS,,,7300,90,0,0,90,0,417000,0,417000,7600,0,H,Y,4/25/2018,1,N,,N,0,,0,0,0,0,,,,FERC,FERC,,,,FERC,CA,05-AUG-18,,Jerry McNerney (D),D,CA09,S002,7,N,N,N,N,28-FEB-18
4162,CAMANCHE DIKE NO. 6,,,,CA00173,-121.0024,38.2444,,SAN JOAQUIN,MOKELUMNE RIVER,CLEMENTS,8,EAST BAY MUNICIPAL UTILITY DISTRICT,U,,N,RE,,R,CFHRS,,,1200,50,0,0,50,0,417000,0,417000,7600,0,H,Y,4/26/2018,1,N,,N,0,,0,0,0,0,,,,FERC,FERC,,,,FERC,CA,05-AUG-18,,Tom McClintock (R),R,CA04,S006,7,N,N,N,N,28-FEB-18
4163,DUNSMUIR RESERVOIR,,,,CA00174,-122.1421,37.7412,,ALAMEDA,OFFSTREAM,,0,EAST BAY MUNICIPAL UTILITY DISTRICT,U,,N,OT,X,R,S,1968,,2275,43,0,41,43,0,0,197,197,6,0,H,Y,5/24/2018,1,Y,"DWR, SAFETY OF DAMS",U,0,,34000,0,0,0,,,,,,,,,CA,CA,30-JUL-18,,Barbara Lee (D),D,CA13,,0,Y,Y,Y,Y,
4164,ALMOND,,,,CA00176,-122.0815,37.7149,,ALAMEDA,OFFSTREAM,,0,EAST BAY MUNICIPAL UTILITY DISTRICT,U,,N,RE,X,R,S,1954,,1040,30,0,29.9,30,0,0,20,20,2,0,H,Y,5/24/2018,1,Y,"DWR, SAFETY OF DAMS",U,0,,11400,0,0,0,,,,,,,,,CA,CA,30-JUL-18,,Eric Swalwell (D),D,CA15,,0,Y,Y,Y,Y,
4165,LELAND,,,,CA00177,-122.089,37.8946,,CONTRA COSTA,OFFSTREAM,,0,EAST BAY MUNICIPAL UTILITY DISTRICT,U,,N,RE,X,R,S,1955,,945,41,0,40.2,41,0,0,60,60,3,0,H,Y,12/21/2017,1,Y,"DWR, SAFETY OF DAMS",U,0,,54200,0,0,0,,,,,,,,,CA,CA,30-JUL-18,,Mark DeSaulnier (D),D,CA11,,0,Y,Y,Y,Y,
4166,MORAGA,,,,CA00178,-122.1177,37.8487,,CONTRA COSTA,OFFSTREAM,,0,EAST BAY MUNICIPAL UTILITY DISTRICT,U,,N,RE,X,R,S,1965,,210,37,0,37,37,0,0,36,36,2,0,H,Y,12/21/2017,1,Y,"DWR, SAFETY OF DAMS",U,0,,1240,0,0,0,,,,,,,,,CA,CA,30-JUL-18,,Mark DeSaulnier (D),D,CA11,,0,Y,Y,Y,Y,
4167,SOBRANTE CLEARWELL,,,,CA00179,-122.2808,37.964,,CONTRA COSTA,OFFSTREAM,,0,EAST BAY MUNICIPAL UTILITY DISTRICT,U,,N,RE,X,U,S,1964,,1032,28,0,25,28,0,0,25,25,2,0,H,Y,3/29/2018,1,Y,"DWR, SAFETY OF DAMS",U,0,,2500,0,0,0,,,,,,,,,CA,CA,30-JUL-18,,Mark DeSaulnier (D),D,CA11,,0,Y,Y,Y,Y,
4168,MALONEY,,,,CA00180,-122.298,37.998,,CONTRA COSTA,OFFSTREAM,,0,EAST BAY MUNICIPAL UTILITY DISTRICT,U,,N,RE,X,S,S,1960,,620,107,0,106.9,107,0,0,68,68,3,0,H,Y,3/29/2018,1,Y,"DWR, SAFETY OF DAMS",U,0,,93600,0,0,0,,,,,,,,,CA,CA,30-JUL-18,,Mike Thompson (D),D,CA05,,0,Y,Y,Y,Y,
4169,SENECA,,,,CA00182,-122.1563,37.7548,,ALAMEDA,OFFSTREAM,,0,EAST BAY MUNICIPAL UTILITY DISTRICT,U,,N,RE,X,R,S,1950,,1520,40,0,36,40,0,0,92,92,5,0,L,Y,8/30/2017,1,Y,"DWR, SAFETY OF DAMS",U,0,,1420,0,0,0,,,,,,,,,CA,CA,30-JUL-18,,Barbara Lee (D),D,CA13,,0,Y,Y,Y,Y,
4170,NORTH,,,,CA00183,-122.3295,37.9728,,CONTRA COSTA,OFFSTREAM,,0,EAST BAY MUNICIPAL UTILITY DISTRICT,U,,N,RE,X,S,S,1961,,1080,82,0,79,82,0,0,244,244,9,0.09,H,Y,8/23/2017,1,Y,"DWR, SAFETY OF DAMS",U,0,,167400,0,0,0,,,,,,,,,CA,CA,30-JUL-18,,Mark DeSaulnier (D),D,CA11,,0,Y,Y,Y,Y,
4171,DANVILLE,,,,CA00184,-122.0044,37.8124,,CONTRA COSTA,OFFSTREAM,,0,EAST BAY MUNICIPAL UTILITY DISTRICT,U,,N,RE,X,S,S,1961,,765,75,0,71.4,75,0,0,45,45,3,0,H,Y,12/21/2017,1,Y,"DWR, SAFETY OF DAMS",U,0,,74000,0,0,0,,,,,,,,,CA,CA,30-JUL-18,,Mark DeSaulnier (D),D,CA11,,0,Y,Y,Y,Y,
4172,SAN PABLO CLEARWELL,,,,CA00185,-122.2869,37.9033,,CONTRA COSTA,OFFSTREAM,,0,EAST BAY MUNICIPAL UTILITY DISTRICT,U,,N,RE,X,S,S,1922,,627,42,0,40,42,0,0,17,17,1,0,H,Y,3/29/2018,1,Y,"DWR, SAFETY OF DAMS",U,0,,42500,0,0,0,,,,,,,,,CA,CA,30-JUL-18,,Mark DeSaulnier (D),D,CA11,,0,Y,Y,Y,Y,
4173,ARGYLE NO 2,,,,CA00186,-122.2907,37.9829,,CONTRA COSTA,OFFSTREAM,,0,EAST BAY MUNICIPAL UTILITY DISTRICT,U,,N,OT,X,R,S,1970,,875,27,0,26,27,0,0,22,22,1,0,H,Y,3/29/2018,1,Y,"DWR, SAFETY OF DAMS",U,0,,0,0,0,0,,,,,,,,,CA,CA,30-JUL-18,,Mark DeSaulnier (D),D,CA11,,0,Y,Y,Y,Y,
4174,BIG DALTON,,,,CA00187,-117.8099,34.1704,,LOS ANGELES,BIG DALTON WASH,2,2,LOS ANGELES COUNTY DEPARTMENT OF PUBLIC WORKS,L,,Y,MV,X,R,CS,1929,,480,153,0,141,153,0,0,1290,1290,26,4.3,H,Y,8/24/2017,1,Y,"DWR, SAFETY OF DAMS",U,0,,45049,0,0,0,,,,,,,,,CA,CA,30-JUL-18,,Judy Chu (D),D,CA27,,0,Y,Y,Y,Y,
4175,BIG SANTA ANITA,,,,CA00188,-118.0201,34.184,,LOS ANGELES,TR RIO HONDO,1,1,LOS ANGELES COUNTY DEPARTMENT OF PUBLIC WORKS,L,,Y,VA,X,R,CS,1927,,612,225,0,127,225,0,0,858,858,5,10.8,H,Y,11/14/2017,1,Y,"DWR, SAFETY OF DAMS",U,0,,76184,0,0,0,,,,,,,,,CA,CA,30-JUL-18,,Judy Chu (D),D,CA27,,0,Y,Y,Y,Y,
4176,DEVILS GATE,,,,CA00189,-118.1756,34.1852,,LOS ANGELES,ARROYO SECO,3,3,LOS ANGELES COUNTY DEPARTMENT OF PUBLIC WORKS,L,,N,PG,X,R,CS,1920,,252,108,0,73.5,108,0,0,2600,2600,110,29.7,H,Y,2/6/2018,1,Y,"DWR, SAFETY OF DAMS",U,0,,34000,0,0,0,,,,,,,,,CA,CA,30-JUL-18,,Judy Chu (D),D,CA27,,0,Y,Y,Y,Y,
4177,COGSWELL,,,,CA00190,-117.9649,34.2441,,LOS ANGELES,WFK SAN GABRIEL R,6,6,LOS ANGELES COUNTY DEPARTMENT OF PUBLIC WORKS,L,,Y,ER,X,R,CHS,1935,,585,266,0,239,266,0,0,8969,8969,146,38.4,H,Y,11/16/2017,1,Y,"DWR, SAFETY OF DAMS",U,0,,1044945,0,0,0,,,,,,,,,CA,CA,30-JUL-18,,Judy Chu (D),D,CA27,,0,Y,Y,Y,Y,
4178,BIG TUJUNGA NO. 1,,,,CA00191,-118.1885,34.2947,,LOS ANGELES,BIG TUJUNGA CR,10,10,LOS ANGELES COUNTY DEPARTMENT OF PUBLIC WORKS,L,,Y,VA,X,R,CS,1931,,505,220,0,190,220,0,0,5750,5750,83,81.7,H,Y,2/13/2018,1,Y,"DWR, SAFETY OF DAMS",U,0,,79293,0,0,0,,,,,,,,,CA,CA,30-JUL-18,,Adam B. Schiff (D),D,CA28,,0,Y,Y,Y,Y,
4179,LIVE OAK,,,,CA00192,-117.7457,34.1327,,LOS ANGELES,LIVE OAK CREEK,2,2,LOS ANGELES COUNTY DEPARTMENT OF PUBLIC WORKS,L,,N,PG,X,R,CS,1922,,303,76,0,67,76,0,0,239,239,12,2.3,H,Y,8/31/2017,1,Y,"DWR, SAFETY OF DAMS",U,0,,11735,0,0,0,,,,,,,,,CA,CA,30-JUL-18,,Judy Chu (D),D,CA27,,0,Y,Y,Y,Y,
4180,PACOIMA,,,,CA00193,-118.3973,34.3355,,LOS ANGELES,PACOIMA CREEK,1,1,LOS ANGELES COUNTY DEPARTMENT OF PUBLIC WORKS,L,,Y,VA,X,R,CS,1929,,640,365,0,300,365,0,0,3777,3777,68,27.8,H,Y,1/25/2018,1,Y,"DWR, SAFETY OF DAMS",U,0,,226110,0,0,0,,,,,,,,,CA,CA,30-JUL-18,,Adam B. Schiff (D),D,CA28,,0,Y,Y,Y,Y,
4181,PUDDINGSTONE,,,,CA00194,-117.8084,34.0909,,LOS ANGELES,WALNUT CREEK,3,3,LOS ANGELES COUNTY DEPARTMENT OF PUBLIC WORKS,L,,N,RE,X,S,CS,1928,,2698,147,0,135,147,0,0,16342,16342,490,33.1,H,Y,8/22/2017,1,Y,"DWR, SAFETY OF DAMS",U,0,,605000,0,0,0,,,,,,,,,CA,CA,30-JUL-18,,Grace F. Napolitano (D),D,CA32,,0,Y,Y,Y,Y,
4182,SAN DIMAS,,,,CA00195,-117.7732,34.1543,,LOS ANGELES,SAN DIMAS CREEK,2,2,LOS ANGELES COUNTY DEPARTMENT OF PUBLIC WORKS,L,,Y,PG,X,U,CS,1922,,340,131,0,112,131,0,0,1534,1534,36,15.9,H,Y,8/22/2017,1,Y,"DWR, SAFETY OF DAMS",U,0,,41286,0,0,0,,,,,,,,,CA,CA,30-JUL-18,,Judy Chu (D),D,CA27,,0,Y,Y,Y,Y,
4183,SAWPIT,,,,CA00196,-117.9881,34.1759,,LOS ANGELES,SAWPIT CREEK,1,1,LOS ANGELES COUNTY DEPARTMENT OF PUBLIC WORKS,L,,N,VA,X,R,CS,1927,,527,150,0,123,150,0,0,406,406,9,3.27,H,Y,11/14/2017,1,Y,"DWR, SAFETY OF DAMS",U,0,,56239,0,0,0,,,,,,,,,CA,CA,30-JUL-18,,Judy Chu (D),D,CA27,,0,Y,Y,Y,Y,
4184,SIERRA MADRE,,,,CA00197,-118.043,34.1762,,LOS ANGELES,L SANTA ANITA CR,,0,LOS ANGELES COUNTY DEPARTMENT OF PUBLIC WORKS,L,,N,VA,X,R,CDS,1928,,200,69,0,62.5,69,0,0,51,51,1,0.77,H,Y,11/28/2017,1,Y,"DWR, SAFETY OF DAMS",U,0,,3791,0,0,0,,,,,,,,,CA,CA,30-JUL-18,,Judy Chu (D),D,CA27,,0,Y,Y,Y,Y,
4185,THOMPSON CREEK,,,,CA00198,-117.7138,34.1407,,LOS ANGELES,THOMPSON CREEK,1,1,LOS ANGELES COUNTY DEPARTMENT OF PUBLIC WORKS,L,,N,RE,X,RS,CS,1928,,1500,66,0,52.3,66,0,0,543,543,345,3.46,H,Y,8/31/2017,1,Y,"DWR, SAFETY OF DAMS",U,0,,196931,0,0,0,,,,,,,,,CA,CA,30-JUL-18,,Judy Chu (D),D,CA27,,0,Y,Y,Y,Y,
4186,PUDDINGSTONE DIVERSION,,,,CA00199,-117.7829,34.1327,,LOS ANGELES,SAN DIMAS WASH,2,2,LOS ANGELES COUNTY DEPARTMENT OF PUBLIC WORKS,L,,N,RE,X,S,C,1928,,825,34,0,18.5,34,0,0,150,150,16,19.8,H,Y,8/22/2017,1,Y,"DWR, SAFETY OF DAMS",U,0,,89611,0,0,0,,,,,,,,,CA,CA,30-JUL-18,,Grace F. Napolitano (D),D,CA32,,0,Y,Y,Y,Y,
4187,SAN GABRIEL,,,,CA00200,-117.8592,34.2065,"S.6,T.1N,R.9W",LOS ANGELES,SAN GABRIEL RIVER,AZUSA,2,LOS ANGELES COUNTY FLOOD CONTROL DISTRICT,L,,N,ERRE,,S,CH,1937,,1500,320,381,292,381,297000,45832,0,45832,0,203,H,Y,9/25/2017,1,Y,"DWR, SAFETY OF DAMS",U,0,,0,0,0,0,,,,FERC,FERC,,,,FERC,CA,05-AUG-18,,Judy Chu (D),D,CA27,,1,Y,Y,Y,Y,04-JAN-11
4188,EATON WASH DEBRIS BASIN,,,,CA00201,-118.0937,34.1684,,LOS ANGELES,EATON WASH,,0,LOS ANGELES COUNTY DEPARTMENT OF PUBLIC WORKS,L,,N,RE,X,S,CD,1936,,1545,63,0,48.5,63,0,0,721,721,54,9.47,H,Y,11/14/2017,1,Y,"DWR, SAFETY OF DAMS",U,0,,470274,0,0,0,,,,,,,,,CA,CA,30-JUL-18,,Judy Chu (D),D,CA27,,0,Y,Y,Y,Y,
4189,RUBIO DEBRIS BASIN,,,,CA00202,-118.124,34.1994,,LOS ANGELES,RUBIO CREEK,1,1,LOS ANGELES COUNTY DEPARTMENT OF PUBLIC WORKS,L,,N,RE,X,S,CD,1944,,780,64,0,50.3,64,0,0,44,44,3,1.71,H,Y,2/6/2018,1,Y,"DWR, SAFETY OF DAMS",U,0,,139950,0,0,0,,,,,,,,,CA,CA,30-JUL-18,,Judy Chu (D),D,CA27,,0,Y,Y,Y,Y,
4190,LAGUNA REGULATING BASIN,,,,CA00203,-118.1642,34.0639,,LOS ANGELES,LAGUNA WASH,1,1,LOS ANGELES COUNTY DEPARTMENT OF PUBLIC WORKS,L,,N,RE,X,S,C,1970,,380,43,0,43,43,0,0,310,310,12,5.55,S,Y,12/7/2017,1,Y,"DWR, SAFETY OF DAMS",U,0,,26000,0,0,0,,,,,,,,,CA,CA,30-JUL-18,,Judy Chu (D),D,CA27,,0,Y,Y,Y,Y,
4191,ALPINE,,,,CA00204,-122.6387,37.9408,,MARIN,LAGUNITAS CREEK,15.5,15.5,MARIN MUNICIPAL WATER DISTRICT,U,,N,PG,X,R,CS,1917,,524,143,0,135,143,0,0,8892,8892,224,10.2,H,Y,2/15/2018,1,Y,"DWR, SAFETY OF DAMS",U,0,,59368,0,0,0,,,,,,,,,CA,CA,30-JUL-18,,Jared Huffman (D),D,CA02,,0,Y,Y,Y,Y,14-NOV-14
4192,LAGUNITAS,,,,CA00205,-122.5963,37.9476,,MARIN,LAGUNITAS CREEK,7.1,7.1,MARIN MUNICIPAL WATER DISTRICT,U,,N,RE,X,R,S,1872,,433,48,0,42.5,48,0,0,341,341,22,1.8,S,Y,2/14/2018,1,Y,"DWR, SAFETY OF DAMS",U,0,,85000,0,0,0,,,,,,,,,CA,CA,30-JUL-18,,Jared Huffman (D),D,CA02,,0,Y,Y,Y,Y,14-NOV-14
4193,PHOENIX LAKE,,,,CA00206,-122.5752,37.9553,,MARIN,ROSS CREEK,1.2,1.2,MARIN MUNICIPAL WATER DISTRICT,U,,N,RE,X,R,S,1907,,320,90,0,74.8,90,0,0,612,612,23,2.2,H,Y,2/14/2018,1,Y,"DWR, SAFETY OF DAMS",U,0,,83000,0,0,0,,,,,,,,,CA,CA,30-JUL-18,,Jared Huffman (D),D,CA02,,0,Y,Y,Y,Y,14-NOV-14
4194,BON TEMPE,,,,CA00207,-122.6098,37.9575,,MARIN,LAGUNITAS CREEK,6,6,MARIN MUNICIPAL WATER DISTRICT,U,,N,RE,X,S,CS,1949,,1150,98,0,94,98,0,0,4300,4300,140,2.71,H,Y,2/14/2018,1,Y,"DWR, SAFETY OF DAMS",U,0,,499500,0,0,0,,,,,,,,,CA,CA,30-JUL-18,,Jared Huffman (D),D,CA02,,0,Y,Y,Y,Y,14-NOV-14
4195,PETERS,KENT LAKE,,,CA00208,-122.7029,37.9977,,MARIN,LAGUNITAS CREEK,9.5,9.5,MARIN MUNICIPAL WATER DISTRICT,U,,N,RE,X,R,S,1954,,700,230,0,215,230,0,0,32900,32900,431,22.1,H,Y,2/13/2018,1,Y,"DWR, SAFETY OF DAMS",U,0,,936261,0,0,0,,,,,,,,,CA,CA,30-JUL-18,,Jared Huffman (D),D,CA02,,0,Y,Y,Y,Y,14-NOV-14
4196,SEEGER,NICASIO,,,CA00209,-122.7552,38.077,,MARIN,NICASIO CREEK,4,4,MARIN MUNICIPAL WATER DISTRICT,U,,N,RE,X,R,CS,1961,,400,115,0,100,115,0,0,22400,22400,845,35.9,H,Y,2/13/2018,1,Y,"DWR, SAFETY OF DAMS",U,0,,350000,0,0,0,,,,,,,,,CA,CA,30-JUL-18,,Jared Huffman (D),D,CA02,,0,Y,Y,Y,Y,14-NOV-14
4197,JUNCAL,JAMESON LAKE,,,CA00211,-119.5083,34.4929,,SANTA BARBARA,SANTA YNEZ RV,4,4,MONTECITO WATER DISTRICT,U,,Y,VA,X,R,CS,1930,,430,160,0,154,160,0,0,6140,6140,138,13.9,H,Y,6/20/2018,1,Y,"DWR, SAFETY OF DAMS",U,0,,40000,0,0,0,,,,,,,,,CA,CA,30-JUL-18,,Salud O. Carbajal (D),D,CA24,,0,Y,Y,Y,Y,
4198,MATHEWS,,,,CA00212,-117.4624,33.842,,RIVERSIDE,TR CAJALCO CREEK,8,8,METROPOLITAN WATER DISTRICT OF SOUTHERN CALIFORNIA,U,,N,RE,X,R,S,1938,,6522,264,0,250,264,0,0,182000,182000,2750,40,H,Y,12/13/2017,1,Y,"DWR, SAFETY OF DAMS",U,0,,9560000,0,0,0,,,,,,,,,CA,CA,30-JUL-18,,Ken Calvert (R),R,CA42,,0,Y,Y,Y,Y,
4199,GENE WASH,,,,CA00213,-114.1663,34.2999,,SAN BERNARDINO,GENE WASH,2,2,METROPOLITAN WATER DISTRICT OF SOUTHERN CALIFORNIA,U,,N,VA,X,R,S,1937,,383,140,0,126.5,140,0,0,6300,6300,224,5.9,H,Y,4/18/2018,1,Y,"DWR, SAFETY OF DAMS",U,0,,14000,0,0,0,,,,,,,,,CA,CA,30-JUL-18,,Paul Cook (R),R,CA08,,0,Y,Y,Y,Y,
4200,COPPER BASIN,,,,CA00214,-114.2227,34.279,,SAN BERNARDINO,COPPER BASIN,6,6,METROPOLITAN WATER DISTRICT OF SOUTHERN CALIFORNIA,U,,N,VA,X,R,S,1938,,265,184,0,170.5,184,0,0,22000,22000,427,8.2,H,N,4/19/2018,1,Y,"DWR, SAFETY OF DAMS",U,0,,19050,0,0,0,,,,,,,,,CA,CA,30-JUL-18,,Paul Cook (R),R,CA08,,0,Y,Y,Y,Y,
4201,PALOS VERDES RES,,,,CA00215,-118.3205,33.7721,,LOS ANGELES,TR LA HARBOR,0.3,0.3,METROPOLITAN WATER DISTRICT OF SOUTHERN CALIFORNIA,U,,N,RE,X,RS,S,1939,,2150,82,0,76.5,82,0,0,1100,1100,27,1,H,Y,3/16/2018,1,Y,"DWR, SAFETY OF DAMS",U,0,,935000,0,0,0,,,,,,,,,CA,CA,30-JUL-18,,Ted Lieu (D),D,CA33,,0,Y,Y,Y,Y,
4202,MORRIS,,,,CA00216,-117.8813,34.175,,LOS ANGELES,SAN GABRIEL RIVER,3,3,LOS ANGELES COUNTY DEPARTMENT OF PUBLIC WORKS,L,,Y,PG,X,R,CS,1935,,750,245,0,240,245,0,0,27500,27500,420,210,H,Y,11/28/2017,1,Y,"DWR, SAFETY OF DAMS",U,0,,513956,0,0,0,,,,,,,,,CA,CA,30-JUL-18,,Judy Chu (D),D,CA27,,0,Y,Y,Y,Y,
4203,GARVEY RESERVOIR,,,,CA00217,-118.1155,34.0507,,LOS ANGELES,TR RIO HONDO,0.3,0.3,METROPOLITAN WATER DISTRICT OF SOUTHERN CALIFORNIA,U,,N,RE,X,R,S,1954,,5164,160,0,153,160,0,0,1610,1610,38,0,H,Y,2/14/2018,1,Y,"DWR, SAFETY OF DAMS",U,0,,3070500,0,0,0,,,,,,,,,CA,CA,30-JUL-18,,Judy Chu (D),D,CA27,,0,Y,Y,Y,Y,
4204,ORANGE COUNTY RESERVOIR,,,,CA00218,-117.8842,33.9367,,ORANGE,TR FULLERTON CR,1,1,METROPOLITAN WATER DISTRICT OF SOUTHERN CALIFORNIA,U,,N,RE,X,R,S,1941,,655,103,0,100,103,0,0,217,217,7,0.01,H,Y,3/5/2018,1,Y,"DWR, SAFETY OF DAMS",U,0,,298200,0,0,0,,,,,,,,,CA,CA,30-JUL-18,,"Gil Ray Cisneros, Jr. (D)",D,CA39,,0,Y,Y,Y,Y,
4205,DIEMER NO. 8,,,,CA00220,-117.8225,33.9134,,ORANGE,OFFSTREAM,1,1,METROPOLITAN WATER DISTRICT OF SOUTHERN CALIFORNIA,U,,N,OT,X,R,S,1968,,1004,172,0,171.2,172,0,0,18,18,1,0.007,H,Y,11/15/2017,1,Y,"DWR, SAFETY OF DAMS",U,0,,0,0,0,0,,,,,,,,,CA,CA,30-JUL-18,,"Gil Ray Cisneros, Jr. (D)",D,CA39,,0,Y,Y,Y,Y,
4206,DIEMER RESERVOIR,,,,CA00221,-117.8193,33.9109,,ORANGE,OFFSTREAM,1,1,METROPOLITAN WATER DISTRICT OF SOUTHERN CALIFORNIA,U,,N,OT,X,R,S,1963,,1880,22,0,19,22,0,0,80,80,5,0,H,Y,11/15/2017,1,Y,"DWR, SAFETY OF DAMS",U,0,,0,0,0,0,,,,,,,,,CA,CA,30-JUL-18,,"Gil Ray Cisneros, Jr. (D)",D,CA39,,0,Y,Y,Y,Y,
4207,WEYMOUTH MEMORIAL RESERVOIR,,,,CA00222,-117.784,34.1099,,LOS ANGELES,OFFSTREAM,0.3,0.3,METROPOLITAN WATER DISTRICT OF SOUTHERN CALIFORNIA,U,,N,OT,X,S,S,1966,,2400,18,0,13,18,0,0,151,151,8,0,H,N,11/15/2017,1,Y,"DWR, SAFETY OF DAMS",U,0,,0,0,0,0,,,,,,,,,CA,CA,30-JUL-18,,Grace F. Napolitano (D),D,CA32,,0,Y,Y,Y,Y,
4208,ROBERT A SKINNER,,,,CA00223,-117.0703,33.5961,,RIVERSIDE,TUCALOTA CREEK,5,5,METROPOLITAN WATER DISTRICT OF SOUTHERN CALIFORNIA,U,,N,RE,X,S,OS,1973,,5150,109,0,95.5,109,0,0,43800,43800,860,51.5,H,Y,10/31/2017,1,Y,"DWR, SAFETY OF DAMS",U,0,,5000000,0,0,0,,,,,,,,,CA,CA,30-JUL-18,,Ken Calvert (R),R,CA42,,0,Y,Y,Y,Y,
4209,"GREGORY, LAKE",,,,CA00224,-117.2669,34.2479,,SAN BERNARDINO,HOUSTON CREEK,3,3,SAN BERNARDINO COUNTY REGIONAL PARKS,L,,Y,RE,X,R,RS,1938,,475,90,0,80,90,0,0,2100,2100,88,2.8,H,Y,12/6/2017,1,Y,"DWR, SAFETY OF DAMS",U,0,,154000,0,0,0,,,,,,,,,CA,CA,30-JUL-18,,Paul Cook (R),R,CA08,,0,Y,Y,Y,Y,14-JUL-16
4210,RED MOUNTAIN RESERVOIR,,,,CA00225,-117.1876,33.3959,,SAN DIEGO,RECHE CREEK,3,3,FALLBROOK PUBLIC UTILITY DISTRICT,U,,N,RE,X,R,S,1985,,1500,120,0,112,120,0,0,1350,1350,23,0.25,H,Y,9/15/2017,1,Y,"DWR, SAFETY OF DAMS",U,0,,84300,0,0,0,,,,,,,,,CA,CA,30-JUL-18,,Duncan Hunter (R),R,CA50,,0,Y,Y,Y,Y,
4211,ANDERSON COTTONWOOD,"REDDING, LAKE",,,CA00226,-122.3944,40.5922,,SHASTA,SACRAMENTO REVER,,0,ANDERSON COTTONWOOD IRRIGATION DISTRICT,U,,N,CB,X,R,CS,1917,,455,24,0,15,24,0,0,1240,1240,190,6860,S,N,2/15/2018,1,Y,"DWR, SAFETY OF DAMS",U,0,,0,0,0,0,,,,,,,,,CA,CA,30-JUL-18,,Doug LaMalfa (R),R,CA01,,0,Y,Y,Y,Y,
4212,CAMP FAR WEST,,,,CA00227,-121.3165,39.0501,,"YUBA, PLACER",BEAR RIVER,SHERIDAN,5,SOUTH SUTTER WATER DISTRICT,L,,N,RE,,,HIR,1963,,6040,185,203,185,203,104500,137280,93740,137280,2020,285,H,Y,4/4/2018,1,Y,"DWR, SAFETY OF DAMS",U,300,,1953000,0,0,0,,,,FERC,FERC,,,,FERC,CA,05-AUG-18,,John Garamendi (D),D,CA03,,1,Y,Y,Y,Y,21-DEC-17
4213,WEBER,,,,CA00228,-120.6925,38.7163,,EL DORADO,NFK WEBER CREEK,30,30,EL DORADO IRRIGATION DISTRICT,U,,N,MV,X,R,S,1924,,374,92,0,87.9,92,0,0,1100,1100,41,9.4,H,N,9/20/2017,1,Y,"DWR, SAFETY OF DAMS",U,0,,5600,0,0,0,,,,,,,,,CA,CA,30-JUL-18,,Tom McClintock (R),R,CA04,,0,Y,Y,Y,Y,
4214,BLAKELY,,,,CA00229,-120.7078,38.7417,,EL DORADO,TR SFK AMERICAN R,0.5,0.5,"WALKER LAND COMPANY, LLC",P,,N,RE,X,U,S,1875,,700,19,0,13,19,0,0,152,152,15,0.13,L,N,6/4/2018,1,Y,"DWR, SAFETY OF DAMS",U,0,,20000,0,0,0,,,,,,,,,CA,CA,30-JUL-18,,Tom McClintock (R),R,CA04,,0,Y,Y,Y,Y,
4215,CAMERON PARK,,,,CA00230,-120.9934,38.6814,,EL DORADO,DEER CREEK,,0,CAMERON PARK COMMUNITY SERVICES DISTRICT,U,,N,RE,X,S,S,1951,,1800,29,0,24.5,29,0,0,480,480,47,2,H,N,2/21/2018,1,Y,"DWR, SAFETY OF DAMS",U,0,,97800,0,0,0,,,,,,,,,CA,CA,30-JUL-18,,Tom McClintock (R),R,CA04,,0,Y,Y,Y,Y,
4216,JACOBS CREEK,,,,CA00232,-120.9399,38.7959,"S23,T11N,R 9E,MD",EL DORADO,JACOBS CREEK,23,,FOUR CORNERS LAND OWNERS ASSOCIATION,P,USDA NRCS,N,RE,X,R,S,1948,,350,53,0,47.9,53,0,0,587,587,42,0.49,L,N,5/11/2018,1,Y,"DWR, SAFETY OF DAMS",U,0,,39500,0,0,0,,USDA NRCS,,,,,,,CA,CA,30-JUL-18,,Tom McClintock (R),R,CA04,,0,Y,Y,Y,Y,
4217,BIG SAGE,,,,CA00233,-120.6277,41.5778,,MODOC,RATTLESNAKE CR,24,24,HOT SPRING VALLEY WATER DISTRICT,U,,Y,RE,X,RS,S,1921,,680,49,0,40.7,49,0,0,77000,77000,5270,107,H,N,6/27/2018,1,Y,"DWR, SAFETY OF DAMS",U,0,,64500,0,0,0,,,,,,,,,CA,CA,30-JUL-18,,Doug LaMalfa (R),R,CA01,,0,Y,Y,Y,Y,
4218,CUYAMACA,,,,CA00234,-116.5863,32.9906,,SAN DIEGO,BOULDER CREEK,45,45,HELIX WATER DISTRICT,U,,N,RE,X,S,CS,1887,,665,40,0,34.3,40,0,0,11740,11740,976,12,H,Y,10/10/2017,1,Y,"DWR, SAFETY OF DAMS",U,0,,31729,0,0,0,,,,,,,,,CA,CA,30-JUL-18,,Duncan Hunter (R),R,CA50,,0,Y,Y,Y,Y,10-AUG-15
4219,CHET HARRITT,"JENNINGS, LAKE",,,CA00236,-116.893,32.8568,,SAN DIEGO,QUAIL CAN CRK,2,2,HELIX WATER DISTRICT,U,,N,RE,X,R,RS,1962,,1117,200,0,191.7,200,0,0,9790,9790,176,1.8,H,Y,10/10/2017,1,Y,"DWR, SAFETY OF DAMS",U,0,,1800000,0,0,0,,,,,,,,,CA,CA,30-JUL-18,,Duncan Hunter (R),R,CA50,,0,Y,Y,Y,Y,10-AUG-15
4220,LITTLEROCK,,,,CA00237,-118.0215,34.4853,,LOS ANGELES,LITTLEROCK CR,3,3,LITTLEROCK CREEK IRRIGATION DISTRICT,U,,Y,RC,X,U,CS,1924,,576,124,0,108,124,0,0,4600,4600,126,63.7,H,Y,3/6/2018,1,Y,"DWR, SAFETY OF DAMS",U,0,,25200,0,0,0,,,,,,,,,CA,CA,30-JUL-18,,Judy Chu (D),D,CA27,,0,Y,Y,Y,Y,
4221,HAROLD RESERVOIR,"PALMDALE, LAKE",,,CA00238,-118.1115,34.5461,,LOS ANGELES,TR ANTELOPE VAL,7,7,PALMDALE WATER DISTRICT,U,,N,RE,X,S,S,1891,,2800,30,0,18.5,30,0,0,3870,3870,218,4.63,H,Y,3/6/2018,1,Y,"DWR, SAFETY OF DAMS",U,0,,0,0,0,0,,,,,,,,,CA,CA,30-JUL-18,,Katie Hill (D),D,CA25,,0,Y,Y,Y,Y,
4222,CROCKER DIVERSION,,,,CA00239,-120.3697,37.5152,,MERCED,MERCED RIVER,4,4,MERCED IRRIGATION DISTRICT,U,,N,PG,X,RS,CS,1910,,725,22,0,17,22,0,0,300,300,56,1045,L,N,2/22/2018,1,Y,"DWR, SAFETY OF DAMS",U,0,,6224,0,0,0,,,,,,,,,CA,CA,30-JUL-18,,Jim Costa (D),D,CA16,,0,Y,Y,Y,Y,
4223,EXCHEQUER MAIN,,,,CA00240,-120.2702,37.585,"S.13,T.4S,R.15E,MDB&M",MARIPOSA,MERCED RIVER,SNELLING,15,MERCED IRRIGATION DISTRICT,U,,N,ERRE,FCZ,UZ,CFHIPR,1966,,1220,490,0,437,490,531600,1100000,1024600,1100000,7110,1037,H,Y,8/1/2017,1,Y,"DWR, SAFETY OF DAMS",C,1360,T6;,0,0,0,0,,,,FERC,FERC,,,,FERC,CA,05-AUG-18,,Tom McClintock (R),R,CA04,,2,Y,Y,Y,Y,14-SEP-12
4224,EXCHEQUER DIKE,,,,CA00240,-120.2763,37.5942,,MARIPOSA,MERCED RIVER,SNELLING,15,MERCED IRRIGATION DISTRICT,U,,N,ERRE,IXZ,UZ,CFHIPR,1966,,2200,62,97,0,97,0,1100000,1024600,1100000,7110,1037,H,Y,8/1/2017,1,N,,N,0,,0,0,0,0,,,,FERC,FERC,,,,FERC,CA,05-AUG-18,,Tom McClintock (R),R,CA04,S001,2,N,N,N,N,23-JAN-08
4225,"YOSEMITE, LAKE",,,,CA00241,-120.4393,37.3754,,MERCED,TR MERCED RV,5.5,5.5,MERCED IRRIGATION DISTRICT,U,,N,RE,X,S,S,1888,,4750,53,0,53,53,0,0,10323,10323,500,4.95,H,N,2/22/2018,1,Y,"DWR, SAFETY OF DAMS",U,0,,348392,0,0,0,,,,,,,,,CA,CA,30-JUL-18,,Jim Costa (D),D,CA16,,0,Y,Y,Y,Y,
4226,MCSWAIN,,,,CA00242,-120.3109,37.521,"S.3,T.5S,R.15E,MDB&M",MARIPOSA,MERCED RIVER,SNELLING,8,MERCED IRRIGATION DISTRICT,U,,N,ERRE,IXZ,UZ,HIR,1966,,1620,97,0,50,97,250000,9730,8255,9730,310,1054,H,Y,8/1/2017,1,Y,"DWR, SAFETY OF DAMS",U,625,,0,0,0,0,,,,FERC,FERC,,,,FERC,CA,05-AUG-18,,Tom McClintock (R),R,CA04,,1,Y,Y,Y,Y,14-SEP-12
4227,MODESTO RES,DALLAS WARNER RES,,,CA00243,-120.6807,37.662,,STANISLAUS,TR TUOLUMNE RV,18,18,MODESTO IRRIGATION DISTRICT,U,,N,RE,X,S,S,1911,,1235,36,0,36,36,0,0,40000,40000,3800,10,H,N,2/12/2018,1,Y,"DWR, SAFETY OF DAMS",U,0,,55000,0,0,0,,,,,,,,,CA,CA,30-JUL-18,,Josh Harder (D),D,CA10,,0,Y,Y,Y,Y,
4228,SHASTA RIVER,"SHASTINA, LAKE",,,CA00244,-122.3737,41.5411,,SISKIYOU,SHASTA RIVER,3,3,MONTAGUE WATER CONSERVATION DISTRICT,U,,N,RE,X,S,S,1928,,1247,96,0,73,96,0,0,50000,50000,1850,0,H,Y,5/31/2017,1,Y,"DWR, SAFETY OF DAMS",U,0,,700000,0,0,0,,,,,,,,,CA,CA,30-JUL-18,,Doug LaMalfa (R),R,CA01,,0,Y,Y,Y,Y,
4229,BOWMAN MAIN,,,,CA00245,-120.6527,39.4485,"S.5,T.18N, R.12E,SW1/4",NEVADA,CANYON CREEK,WASHINGTON,10,NEVADA IRRIGATION DISTRICT,U,"FRED TIBBITS, STATE ENGINEER",N,ER,FCK,RK,HIRS,1926,,700,167,174.5,167,174.5,19500,68500,63700,68500,810,29,H,Y,9/13/2017,1,Y,"DWR, SAFETY OF DAMS",N,0,,370000,0,0,0,,,,FERC,FERC,,,,FERC,CA,05-AUG-18,,Doug LaMalfa (R),R,CA01,,2,Y,Y,Y,Y,27-DEC-17
4230,BOWMAN ARCH,,,,CA00245,-120.6542,39.4428,"S.8,T.18N,R.12E,NW1/4",NEVADA,CANYON CREEK,WASHINGTON,10,NEVADA IRRIGATION DISTRICT,U,"FRED TIBBITS, STATE ENGINEER",N,CNVA,HCK,RK,HIRS,1927,,567,105,109,105,109,19500,68500,63700,68500,810,29,H,Y,9/13/2017,1,N,,C,114,T7;,22000,0,0,0,,,,FERC,FERC,,,,FERC,CA,05-AUG-18,,Doug LaMalfa (R),R,CA01,S001,2,N,N,N,N,27-DEC-17
4231,DEER CREEK DIVERSION,LOWER SCOTTS FLAT,,,CA00246,-120.9541,39.2697,,NEVADA,DEER CREEK,4,4,NEVADA IRRIGATION DISTRICT,U,,N,VA,X,R,CDST,1928,,334,92,0,86.6,92,0,0,1400,1400,56,20,H,N,10/25/2017,1,Y,"DWR, SAFETY OF DAMS",U,0,,6700,0,0,0,,,,,,,,,CA,CA,30-JUL-18,,Doug LaMalfa (R),R,CA01,,0,Y,Y,Y,Y,
4232,FRENCH LAKE,,,,CA00247,-120.5423,39.4207,"S.17,T.18N, R.13E, SW1/4",NEVADA,CANYON CREEK,GRANITEVILLE,8,NEVADA IRRIGATION DISTRICT,U,"FRED TIBBITS, STATE ENGINEER",N,ER,FCK,RK,HIRS,1859,1948E,200,95,95,89.5,95,4300,13940,13750,13940,337,4.9,H,Y,9/12/2017,1,Y,"DWR, SAFETY OF DAMS",U,0,,30000,0,0,0,,,,FERC,FERC,,,,FERC,CA,05-AUG-18,,Doug LaMalfa (R),R,CA01,,1,Y,Y,Y,Y,27-DEC-17
4233,MILTON MAIN,,,,CA00248,-120.583,39.5222,"S.12,T.19N,R.12E,SW1/4","NEVADA, SIERRA",MIDDLE YUBA RIVER,WOOLSEY FLAT,5,NEVADA IRRIGATION DISTRICT,U,"FRED TIBBITS, STATE ENGINEER",N,CNVA,HCK,RK,HIRS,1927,,286,37,35.5,30.5,37,10000,295,200,295,810,39,L,Y,9/12/2017,1,Y,"DWR, SAFETY OF DAMS",U,245,,1500,0,0,0,,,,FERC,FERC,,,,FERC,CA,05-AUG-18,,Doug LaMalfa (R),R,CA01,,2,Y,Y,Y,Y,27-DEC-17
4234,MILTON SOUTH,,,,CA00248,-120.5825,39.5213,"S.12,T.19N,R.12E,SW1/4",NEVADA,MIDDLE YUBA RIVER,OREGON CREEK CG,50,NEVADA IRRIGATION DISTRICT,U,"FRED TIBBITS, STATE ENGINEER",N,CNVA,HCK,RK,HIRS,1927,,137,30,30,24,30,10000,295,200,295,810,39,L,Y,9/12/2017,1,N,,N,0,,250,0,0,0,,,,FERC,FERC,,,,FERC,CA,05-AUG-18,,Doug LaMalfa (R),R,CA01,S001,2,N,N,N,N,27-DEC-17
4235,LAKE COMBIE,,,,CA00249,-121.0581,39.0098,"S.2,T.13N,R.8E,NW1/4",PLACER,BEAR RIVER,MAGNOLIA,4,NEVADA IRRIGATION DISTRICT,U,"FRED TIBBITS, STATE ENGINEER",N,CNVA,HCK,RK,HIS,1928,1991,762,95,100,90,100,28700,0,5555,5555,360,135.6,H,Y,9/14/2017,1,Y,"DWR, SAFETY OF DAMS",U,0,,22000,0,0,0,,,,FERC,FERC,,,,FERC,CA,05-AUG-18,,Doug LaMalfa (R),R,CA01,,1,Y,Y,Y,Y,27-DEC-17
4236,SAWMILL MAIN,,,,CA00250,-120.6023,39.4452,"S.11,T.18N, R.12E,NW1/4",NEVADA,CANYON CREEK,SAWMILL CAMPGROUND,0,NEVADA IRRIGATION DISTRICT,U,"EBASCO SERVICES, INC.",N,ER,FCK,RK,HIRS,1910,,380,60,52,45,60,0,3030,3030,3030,113,18,L,Y,9/12/2017,1,Y,"DWR, SAFETY OF DAMS",N,0,,11000,0,0,0,,,,FERC,FERC,,,,FERC,CA,05-AUG-18,,Doug LaMalfa (R),R,CA01,,2,Y,Y,Y,Y,27-DEC-17
4237,SAWMILL SPILLWAY,,,,CA00250,-120.603,39.4448,"S.11,T.18N,R.12E,NW1/4",NEVADA,CANYON CREEK,SAWMILL CAMPGROUND,0,NEVADA IRRIGATION DISTRICT,U,"EBASCO SERVICES, INC.",N,CB,HCK,RK,HIRS,1910,,270,9,9,6,9,18000,3030,3030,3030,113,18,L,Y,9/12/2017,1,N,,U,228,,100,0,0,0,,,,FERC,FERC,,,,FERC,CA,05-AUG-18,,Doug LaMalfa (R),R,CA01,S001,2,N,N,N,N,27-DEC-17
4238,JACKSON LAKE,,,,CA00252,-120.5638,39.4644,"S.31,T.19N, R.13E,SW1/4",NEVADA,JACKSON CREEK TR CANYON CREEK,JACKSON CREEK CAMPGROUND,1,NEVADA IRRIGATION DISTRICT,U,"FRED TIBBITS, STATE ENGINEER",N,RE,HEK,RK,HIS,1943,,830,22,28.5,24.5,28.5,780,1330,1330,1330,51,0.7,H,Y,9/12/2017,1,Y,"DWR, SAFETY OF DAMS",U,50,,3000,0,0,0,,,,FERC,FERC,,,,FERC,CA,05-AUG-18,,Doug LaMalfa (R),R,CA01,,1,Y,Y,Y,Y,27-DEC-17
4239,SCOTTS FLAT,,,,CA00253,-120.931,39.2719,"T.16N,R.9E,S2,SE1/4&S.11,NE1/4",NEVADA,DEER CREEK,NEVADA CITY,5,NEVADA IRRIGATION DISTRICT,U,"EBASCO SERVICES, INC.",N,RE,IEK,RK,HIP,1948,1963,960,175,175,165,175,28000,0,49000,49000,725,20,H,Y,9/13/2017,1,Y,"DWR, SAFETY OF DAMS",U,0,,66300000,0,0,0,,,,FERC,FERC,,,,FERC,CA,05-AUG-18,,Doug LaMalfa (R),R,CA01,,1,Y,Y,Y,Y,27-DEC-17
4240,JACKSON MEADOWS,,,,CA00254,-120.556,39.5085,"S.18,T.19N,R.13E,S1/2","NEVADA, SIERRA",MIDDLE YUBA RIVER,"MILTON RES, WOOLSEY FLAT",2,NEVADA IRRIGATION DISTRICT,U,"EBASCO SERVICES, INC.",N,ERRE,IEK,RK,HIRS,1965,,1630,196,205,195.5,205,20000,69200,53100,69200,1710,37,H,Y,9/12/2017,1,Y,"DWR, SAFETY OF DAMS",C,90,T3;,1760000,0,0,0,,,,FERC,FERC,,,,FERC,CA,05-AUG-18,,Doug LaMalfa (R),R,CA01,,1,Y,Y,Y,Y,27-DEC-17
4241,ROLLINS,,,,CA00255,-120.953,39.1356,"S.22,T.15N,R.9E,SE1/4","NEVADA, PLACER",BEAR RIVER,"RD 174 BRIDGE, COMBIE DAM",0,NEVADA IRRIGATION DISTRICT,U,"EBASCO SERVICES, INC.",N,RE,IEK,RK,HIRS,1965,,1840,228,227.5,211,228,60000,65988,65988,65988,828,104,H,Y,9/11/2017,1,Y,"DWR, SAFETY OF DAMS",U,100,,2236000,0,0,0,,,,FERC,FERC,,,,FERC,CA,05-AUG-18,,Doug LaMalfa (R),R,CA01,,1,Y,Y,Y,Y,27-DEC-17
4242,FAUCHERIE LAKE MAIN,,,,CA00256,-120.5692,39.429,"S.31,T.18N,R.12E,NE1/4",NEVADA,CANYON CREEK,CANYON CREEK CAMPGROUND,2,NEVADA IRRIGATION DISTRICT,U,"EBASCO SERVICES, INC.",N,ERRE,IEZ,RZ,HIRS,1966,,665,65,65,57,65,0,0,5500,5500,152,9.37,H,Y,9/12/2017,1,Y,"DWR, SAFETY OF DAMS",N,0,,86000,0,0,0,,,,FERC,FERC,,,,FERC,CA,05-AUG-18,,Doug LaMalfa (R),R,CA01,,2,Y,Y,Y,Y,27-DEC-17
4243,FAUCHERIE SPILLWAY AUXILIARY,,,,CA00256,-120.5671,39.4288,"S.31,T.18N,R.12E, NE1/4",NEVADA,CANYON CREEK,CANYON CREEK CAMPGROUND,2,NEVADA IRRIGATION DISTRICT,U,"EBASCO SERVICES, INC.",N,CNPG,HCK,RK,HIRS,1966,,150,3,3,3,3,10050,0,5500,5500,152,10,H,Y,9/12/2017,1,N,,U,0,,100,0,0,0,,,,FERC,FERC,,,,FERC,CA,05-AUG-18,,Doug LaMalfa (R),R,CA01,S001,2,N,N,N,N,27-DEC-17
4244,DUTCH FLAT AFTERBAY,,,,CA00257,-120.8448,39.2135,"S.34,T.16N,R.10E,NE1/4","NEVADA, PLACER",BEAR RIVER,TWO ROAD CROSSINGS,5,NEVADA IRRIGATION DISTRICT,U,"EBASCO SERVICES, INC.",N,ER,IEK,RK,HIS,1965,,600,165,165,150,165,15000,2037,1900,2037,42,23,L,Y,9/11/2017,1,Y,"DWR, SAFETY OF DAMS",U,100,,60000,0,0,0,,,,FERC,FERC,,,,FERC,CA,05-AUG-18,,Doug LaMalfa (R),R,CA01,,1,Y,Y,Y,Y,27-DEC-17
4245,DUTCH FLAT FOREBAY,DUTCH FLAT NO. 2 FOREBAY,,,CA00258,-120.8355,39.2242,"S.27,T.16N,R.10E,NE1/4",NEVADA,DUTCH FLAT CANAL,DUTCH FLAT AFTERBAY,0,NEVADA IRRIGATION DISTRICT,U,"EBASCO SERVICES, INC.",N,ERRE,IEK,RK,HIS,1966,,440,77,105,100,105,610,184,162,184,8,0.1,L,Y,9/11/2017,1,Y,"DWR, SAFETY OF DAMS",U,250,,124000,0,0,0,,,,FERC,FERC,,,,FERC,CA,05-AUG-18,,Doug LaMalfa (R),R,CA01,,1,Y,Y,Y,Y,27-DEC-17
4246,LOMA RICA AIRPORT,EMPIRE RESERVOIR,,,CA00259,-120.9903,39.2239,,NEVADA,TR L GREEN HORN CR,,0,NEVADA IRRIGATION DISTRICT,U,,N,RE,X,S,S,1965,,900,41,0,36,41,0,0,94,94,9,0.2,H,N,10/26/2017,1,Y,"DWR, SAFETY OF DAMS",U,0,,51000,0,0,0,,,,,,,,,CA,CA,30-JUL-18,,Doug LaMalfa (R),R,CA01,,0,Y,Y,Y,Y,
4247,GOODWIN,,,,CA00260,-120.6303,37.8633,,CALAVERAS,STANISLAUS RV,4,4,TRI-DAM PROJECT,U,,N,MV,X,R,CS,1912,,460,101,0,81.1,101,0,0,500,500,70,996.5,H,Y,1/25/2018,1,Y,"DWR, SAFETY OF DAMS",U,0,,11178,0,0,0,,,,,,,,,CA,CA,30-JUL-18,,Tom McClintock (R),R,CA04,,0,Y,Y,Y,Y,20-MAR-17
4248,RODDEN LAKE,,,,CA00262,-120.7654,37.8181,,STANISLAUS,LESNINI CREEK,3,3,OAKDALE IRRIGATION DISTRICT,U,,N,RE,X,S,OS,1916,,320,40,0,30.2,40,0,0,380,380,44,1.36,L,N,11/14/2017,1,Y,"DWR, SAFETY OF DAMS",U,0,,10655,0,0,0,,,,,,,,,CA,CA,30-JUL-18,,Josh Harder (D),D,CA10,,0,Y,Y,Y,Y,
4249,BEARDSLEY,,,,CA00263,-120.0753,38.2035,"SE1/4,NW1/4 S.14,T.4N,R.17E",TUOLUMNE,MIDDLE FORK STANISLAUS RIVER,SONORA,25,SOUTH SAN JOAQUIN IRRIGATION DISTRICT,U,TUDOR-GOODENOUGH,N,ERRE,,R,CHR,1957,,1000,278,284,276,284,90000,97800,97500,97800,720,310,H,Y,9/26/2017,1,Y,"DWR, SAFETY OF DAMS",C,174,T4;,86300,0,0,0,,,,FERC,FERC,,,,FERC,CA,05-AUG-18,,Tom McClintock (R),R,CA04,,1,Y,Y,Y,Y,26-FEB-18
4250,DONNELLS,,,,CA00264,-119.9613,38.3302,,TUOLUMNE,MIDDLE FORK STANISLAUS RIVER,SONORA,35,SOUTH SAN JOAQUIN IRRIGATION DISTRICT,U,GEORGE E. GOODALL CO.,N,CNVA,,R,CH,1958,,750,317,317,310,317,43800,65000,64500,65000,418,226,H,Y,9/26/2017,1,Y,"DWR, SAFETY OF DAMS",C,175,T5;,67000,0,0,0,,,,FERC,FERC,,,,FERC,CA,05-AUG-18,,Tom McClintock (R),R,CA04,,1,Y,Y,Y,Y,26-FEB-18
4251,TULLOCH,,,,CA00265,-120.6049,37.8761,"T.1S,R.12E","CALAVERAS, TOULUMNE",STANISLAUS RIVER,KNIGHTS FERRY,4,SOUTH SAN JOAQUIN IRRIGATION DISTRICT,U,GEORGE E. GOODALL CO.,N,CN,,R,CHR,1958,,1914,205,200,165,205,13900,68400,67000,68400,1260,980,H,Y,9/26/2017,1,Y,"DWR, SAFETY OF DAMS",C,280,T7;,230000,0,0,0,,,,FERC,FERC,,,,FERC,CA,05-AUG-18,,Tom McClintock (R),R,CA04,,1,Y,Y,Y,Y,26-FEB-18
4252,BEARDSLEY AFTERBAY,,,,CA00266,-120.0905,38.1961,,TUOLUMNE,MIDDLE FORK STANISLAUS RIVER,SONORA,20,SOUTH SAN JOAQUIN IRRIGATION DISTRICT,U,,N,ER,,,H,1958,,240,33,33,31.2,33,1,355,320,355,26,0,L,NR,9/26/2017,1,Y,"DWR, SAFETY OF DAMS",U,0,,0,0,0,0,,,,FERC,FERC,,,,FERC,CA,05-AUG-18,,Tom McClintock (R),R,CA04,,1,Y,Y,Y,Y,
4253,"WYANDOTTE, LAKE",,,,CA00267,-121.4214,39.5071,,BUTTE,NO HONCUT CREEK,18,18,SOUTH FEATHER WATER AND POWER AGENCY,U,,N,RE,X,S,CS,1924,,900,46,0,29.5,46,0,0,313,313,18,3,H,Y,6/4/2018,1,Y,"DWR, SAFETY OF DAMS",U,0,,73000,0,0,0,,,,,,,,,CA,CA,30-JUL-18,,Doug LaMalfa (R),R,CA01,,0,Y,Y,Y,Y,
4254,LOST CREEK,,,,CA00268,-121.1357,39.5763,"S.24,T.20N,R.7E,SE1/4",BUTTE,LOST CREEK,WOODLEAF POWERHOUSE,5,SOUTH FEATHER WATER AND POWER AGENCY,U,BECHTEL,N,CNVA,HCK,RK,HIS,1924,,525,112,122,106,122,21500,5780,5100,5780,138,31,H,Y,6/26/2018,1,Y,"DWR, SAFETY OF DAMS",U,150,,0,0,0,0,,,,FERC,FERC,,,,FERC,CA,05-AUG-18,,Doug LaMalfa (R),R,CA01,,1,Y,Y,Y,Y,03-JAN-18
4255,LITTLE GRASS VALLEY,,,,CA00269,-121.0201,39.725,"S.31,T.22N,R.9E, W1/2",PLUMAS,SOUTH FORK FEATHER RIVER,GOLDEN TROUT CROSSING,13,SOUTH FEATHER WATER AND POWER AGENCY,U,BECHTEL,N,ERRE,IEK,RK,HIS,1961,,840,184,210,198,210,0,94660,93010,94660,1630,25.8,H,Y,6/27/2018,1,Y,"DWR, SAFETY OF DAMS",C,80,T2;,834000,0,0,0,,,,FERC,FERC,,,,FERC,CA,05-AUG-18,,Doug LaMalfa (R),R,CA01,,1,Y,Y,Y,Y,03-JAN-18
4256,SOUTH FORK DIVERSION,,,,CA00270,-121.1163,39.6503,"S.29,T.21N,R.8E, W1/2",BUTTE,SOUTH FORK FEATHER RIVER,WOODLEAF POWERHOUSE,10,SOUTH FEATHER WATER AND POWER AGENCY,U,BECHTEL,N,CNVA,HCK,RK,HIS,1961,,228,60,60,46,60,20700,87,87,87,3,37.7,L,NR,6/27/2018,1,Y,"DWR, SAFETY OF DAMS",U,180,,1693,0,0,0,,,,FERC,FERC,,,,FERC,CA,05-AUG-18,,Doug LaMalfa (R),R,CA01,,1,Y,Y,Y,Y,
4257,SLATE CREEK,,,,CA00271,-121.054,39.6132,"S.11,T.20N,R.8E, NW1/4",PLUMAS,SLATE CREEK,WAMBO BAR,9,SOUTH FEATHER WATER AND POWER AGENCY,U,BECHTEL,N,CNVA,HCK,RK,HIS,1961,,258,68,70,46,70,35000,643,100,643,17,49.4,L,NR,6/27/2018,1,Y,"DWR, SAFETY OF DAMS",U,212,,1850,0,0,0,,,,FERC,FERC,,,,FERC,CA,05-AUG-18,,Doug LaMalfa (R),R,CA01,,1,Y,Y,Y,Y,
4258,SLY CREEK,,,,CA00272,-121.1155,39.5826,"S.20,T.20N,R.8E, NW1/4",BUTTE,LOST CREEK,WOODLEAF POWERHOUSE,7,SOUTH FEATHER WATER AND POWER AGENCY,U,BECHTEL,N,ERRE,IEK,RK,HIS,1961,,1150,271,289,260,289,19500,65650,65050,65650,598,24,H,Y,6/27/2018,1,Y,"DWR, SAFETY OF DAMS",C,54,,5232000,0,0,0,,,,FERC,FERC,,,,FERC,CA,05-AUG-18,,Doug LaMalfa (R),R,CA01,,1,Y,Y,Y,Y,03-JAN-18
4259,FORBESTOWN DIVERSION,,,,CA00273,-121.2095,39.5515,"S.32,T.20N,R.7E, NE1/4",BUTTE,SOUTH FORK FEATHER RIVER,FORBESTOWN POWERHOUSE,1,SOUTH FEATHER WATER AND POWER AGENCY,U,BECHTEL,N,CNVA,HCK,RK,HIS,1962,,268,81,81,80,81,45400,352,344,352,12,87.5,L,NR,6/26/2018,1,Y,"DWR, SAFETY OF DAMS",U,230,,6174,0,0,0,,,,FERC,FERC,,,,FERC,CA,05-AUG-18,,Doug LaMalfa (R),R,CA01,,1,Y,Y,Y,Y,
4260,PONDEROSA,,,,CA00274,-121.3039,39.5493,"S.33,T.20N,R.6E, N1/2",BUTTE,SOUTH FORK FEATHER RIVER,OROVILLE,1,SOUTH FEATHER WATER AND POWER AGENCY,U,BECHTEL,N,ERRE,IEK,RK,HIS,1962,,653,157,160,135,160,60500,4834,4750,4834,103,108.3,L,NR,6/25/2018,1,Y,"DWR, SAFETY OF DAMS",C,97,L2;,660000,0,0,0,,,,FERC,FERC,,,,FERC,CA,05-AUG-18,,Doug LaMalfa (R),R,CA01,,1,Y,Y,Y,Y,
4261,MINER'S RANCH,,,,CA00275,-121.4575,39.5048,"S.18,T.19N,R.5E, NW1/4",BUTTE,WEST FORK OF NORTH FORK HONCUT,MT IDA RD CROSSING,1,SOUTH FEATHER WATER AND POWER AGENCY,U,BECHTEL,N,RE,IEK,RK,HIS,1962,,1650,52,57,90,90,2500,896,815,896,48.3,0.3,H,Y,6/25/2018,1,Y,"DWR, SAFETY OF DAMS",U,100,,227000,0,0,0,,,,FERC,FERC,,,,FERC,CA,05-AUG-18,,Doug LaMalfa (R),R,CA01,,1,Y,Y,Y,Y,03-JAN-18
4262,WOODWARD,,,,CA00276,-120.875,37.8646,,STANISLAUS,SIMMONS CREEK,8,8,SOUTH SAN JOAQUIN IRRIGATION DISTRICT,U,,N,RE,X,R,HOS,1918,,3100,65,0,65,65,0,0,49340,49340,2427,12,H,Y,1/31/2018,1,Y,"DWR, SAFETY OF DAMS",U,0,,523000,0,0,0,,,,,,,,,CA,CA,30-JUL-18,,Josh Harder (D),D,CA10,,0,Y,Y,Y,Y,14-DEC-15
4263,CONCOW,WILENOR,,,CA00277,-121.5281,39.7636,,BUTTE,CONCOW CREEK,4,4,THERMALITO WATER AND SEWER DISTRICT,U,,N,VA,X,R,HS,1925,,335,94,0,92.25,94,0,0,6370,6370,280,14.88,H,N,5/3/2018,1,Y,"DWR, SAFETY OF DAMS",U,0,,6311,0,0,0,,,,,,,,,CA,CA,30-JUL-18,,Doug LaMalfa (R),R,CA01,,0,Y,Y,Y,Y,
4264,LA GRANGE,,,,CA00278,-120.4444,37.6721,,STANISLAUS,TUOLUMNE RIVER,LA GRANGE,1,,X,,N,MSVA,,,,1893,,310,131,0,0,131,0,500,350,500,58,0,S,NR,3/21/2017,1,Y,"DWR, SAFETY OF DAMS",,0,,0,0,0,0,,,,FERC,FERC,,,,FERC,CA,05-AUG-18,,Josh Harder (D),D,CA10,,1,Y,Y,Y,Y,22-JAN-18
4265,TURLOCK LAKE,,,,CA00279,-120.5945,37.6117,,STANISLAUS,TR TUOLUMNE RV,9,9,TURLOCK IRRIGATION DISTRICT,U,,N,RE,X,S,HOS,1915,,196,36,0,36,36,0,0,63406,63406,3260,10.4,H,Y,12/14/2017,1,Y,"DWR, SAFETY OF DAMS",U,0,,92700,0,0,0,,,,,,,,,CA,CA,30-JUL-18,,Josh Harder (D),D,CA10,,0,Y,Y,Y,Y,15-MAR-17
4266,DAWSON LAKE,,,,CA00280,-120.4785,37.6405,,STANISLAUS,TR TUOLUMNE RV,16,16,TURLOCK IRRIGATION DISTRICT,U,,N,RE,X,S,HS,1896,,287,22,0,19,22,0,0,960,960,137,12.6,L,Y,12/14/2017,1,Y,"DWR, SAFETY OF DAMS",U,0,,4100,0,0,0,,,,,,,,,CA,CA,30-JUL-18,,Josh Harder (D),D,CA10,,0,Y,Y,Y,Y,11-JAN-17
4267,DON PEDRO MAIN,,,,CA00281,-120.4221,37.7007,"S.26,T.2S,R.14E",TUOLUMNE,TUOLUMNE RIVER,LA GRANGE,4,TURLOCK IRRIGATION DISTRICT,U,BECHTEL,N,ERRE,,R,CFHIR,1971,,1900,585,585,560,585,609000,2300000,2030000,2300000,13000,1540,H,Y,3/20/2017,1,Y,"DWR, SAFETY OF DAMS",C,1130,T3;,16400000,0,0,0,,,,FERC,FERC,,,,FERC,CA,05-AUG-18,,Tom McClintock (R),R,CA04,,4,Y,Y,Y,Y,22-JAN-18
4268,DON PEDRO DIKE A,,,,CA00281,-120.4292,37.6992,,TUOLUMNE,TUOLUMNE RIVER,LA GRANGE,4,TURLOCK IRRIGATION DISTRICT,U,BECHTEL,N,RE,,,CFHIR,1971,,1750,25,25,0,25,0,2300000,2030000,2300000,13000,0,S,Y,3/20/2017,1,N,,N,0,,229000,0,0,0,,,,FERC,FERC,,,,FERC,CA,05-AUG-18,,Tom McClintock (R),R,CA04,S001,4,N,N,N,N,29-DEC-17
4269,DON PEDRO DIKE B,,,,CA00281,-120.4152,37.7017,,TUOLUMNE,TUOLUMNE RIVER,LA GRANGE,4,TURLOCK IRRIGATION DISTRICT,U,BECHTEL,N,RE,,,CFHIR,1971,,560,36,36,0,36,0,2300000,2030000,2300000,13000,0,H,Y,3/20/2017,1,N,,N,0,,51600,0,0,0,,,,FERC,FERC,,,,FERC,CA,05-AUG-18,,Tom McClintock (R),R,CA04,S002,4,N,N,N,N,29-DEC-17
4270,DON PEDRO DIKE C,,,,CA00281,-120.4121,37.7023,,TUOLUMNE,TUOLUMNE RIVER,LA GRANGE,4,TURLOCK IRRIGATION DISTRICT,U,BECHTEL,N,RE,,,CFHIR,1971,,310,10,10,0,10,0,2300000,2030000,2300000,13000,0,S,Y,3/20/2017,1,N,,N,0,,5750,0,0,0,,,,FERC,FERC,,,,FERC,CA,05-AUG-18,,Tom McClintock (R),R,CA04,S003,4,N,N,N,N,29-DEC-17
4271,HENSHAW,,,,CA00283,-116.763,33.2413,,SAN DIEGO,SAN LUIS REY RV,14,14,VISTA IRRIGATION DISTRICT,U,,Y,RE,X,S,S,1923,,650,123,0,73,123,0,0,50000,50000,2000,207,H,Y,11/13/2017,1,Y,"DWR, SAFETY OF DAMS",U,0,,500000,0,0,0,,,,,,,,,CA,CA,30-JUL-18,,Duncan Hunter (R),R,CA50,,0,Y,Y,Y,Y,17-JAN-17
4272,BRIDGEPORT,,,,CA00284,-119.2111,38.3266,,MONO,EAST WALKER RV,61,61,WALKER RIVER IRRIGATION DISTRICT,U,,Y,RE,X,RS,RS,1924,,900,63,0,52.7,63,0,0,44100,44100,3125,356,S,N,11/6/2017,1,Y,"DWR, SAFETY OF DAMS",U,0,,132000,0,0,0,,,,,,,,,CA,CA,30-JUL-18,,Paul Cook (R),R,CA08,,0,Y,Y,Y,Y,
4273,COYOTE PERCOLATION,,,,CA00286,-121.7608,37.2352,,SANTA CLARA,COYOTE CREEK,,0,SANTA CLARA VALLEY WATER DISTRICT,U,,N,CB,X,S,S,1934,,204,24,0,15,24,0,0,72,72,30,227,H,Y,12/12/2017,1,Y,"DWR, SAFETY OF DAMS",U,0,,335,0,0,0,,,,,,,,,CA,CA,30-JUL-18,,Zoe Lofgren (D),D,CA19,,0,Y,Y,Y,Y,27-OCT-16
4274,COYOTE,,,,CA00287,-121.5497,37.1193,,SANTA CLARA,COYOTE CREEK,3,3,SANTA CLARA VALLEY WATER DISTRICT,U,,N,RE,X,R,S,1936,,980,140,0,115.2,140,0,0,23666,23666,635,120,H,Y,4/4/2018,1,Y,"DWR, SAFETY OF DAMS",U,0,,1130000,0,0,0,,,,,,,,,CA,CA,30-JUL-18,,Zoe Lofgren (D),D,CA19,,0,Y,Y,Y,Y,27-OCT-16
4275,CALERO,,,,CA00288,-121.7913,37.1836,,SANTA CLARA,CALERO CREEK,3,3,SANTA CLARA VALLEY WATER DISTRICT,U,,N,RE,X,R,RST,1935,,840,90,0,83.9,90,0,0,9850,9850,337,7.14,H,Y,12/12/2017,1,Y,"DWR, SAFETY OF DAMS",U,0,,550000,0,0,0,,,,,,,,,CA,CA,30-JUL-18,,Zoe Lofgren (D),D,CA19,,0,Y,Y,Y,Y,27-OCT-16
4276,ALMADEN,,,,CA00289,-121.828,37.1646,,SANTA CLARA,ALAMITOS CREEK,3,3,SANTA CLARA VALLEY WATER DISTRICT,U,,N,RE,X,R,CS,1936,,500,110,0,102,110,0,0,2000,2000,62,12.5,H,Y,12/12/2017,1,Y,"DWR, SAFETY OF DAMS",U,0,,250000,0,0,0,,,,,,,,,CA,CA,30-JUL-18,,Zoe Lofgren (D),D,CA19,,0,Y,Y,Y,Y,27-OCT-16
4277,GUADALUPE,,,,CA00290,-121.8789,37.2,,SANTA CLARA,GUADALUPE CR,3,3,SANTA CLARA VALLEY WATER DISTRICT,U,,N,RE,X,R,S,1935,,695,142,0,132,142,0,0,3460,3460,75,6,H,Y,12/12/2017,1,Y,"DWR, SAFETY OF DAMS",U,0,,500000,0,0,0,,,,,,,,,CA,CA,30-JUL-18,,Anna G. Eshoo (D),D,CA18,,0,Y,Y,Y,Y,27-OCT-16
4278,VASONA PERCOLATING,,,,CA00291,-121.9637,37.2462,,SANTA CLARA,LOS GATOS CRK,,0,SANTA CLARA VALLEY WATER DISTRICT,U,,N,RE,X,S,CS,1935,,1000,34,0,22,34,0,0,410,410,58,44.2,H,Y,12/11/2017,1,Y,"DWR, SAFETY OF DAMS",U,0,,61000,0,0,0,,,,,,,,,CA,CA,30-JUL-18,,Anna G. Eshoo (D),D,CA18,,0,Y,Y,Y,Y,27-OCT-16
4279,STEVENS CREEK,,,,CA00292,-122.0754,37.2983,,SANTA CLARA,STEVENS CREEK,1,1,SANTA CLARA VALLEY WATER DISTRICT,U,,N,RE,X,S,S,1935,,1080,132,0,112.76,132,0,0,3800,3800,95,17.5,H,Y,4/3/2018,1,Y,"DWR, SAFETY OF DAMS",U,0,,386000,0,0,0,,,,,,,,,CA,CA,30-JUL-18,,Anna G. Eshoo (D),D,CA18,,0,Y,Y,Y,Y,27-OCT-16
4280,JAMES J. LENIHAN,LEXINGTON,,,CA00293,-121.988,37.2015,,SANTA CLARA,LOS GATOS CRK,2,2,SANTA CLARA VALLEY WATER DISTRICT,U,,N,RE,X,R,S,1953,,810,208,0,188,208,0,0,21430,21430,450,27.7,H,Y,12/11/2017,1,Y,"DWR, SAFETY OF DAMS",U,0,,2081818,0,0,0,,,,,,,,,CA,CA,30-JUL-18,,Anna G. Eshoo (D),D,CA18,,0,Y,Y,Y,Y,27-OCT-16
4281,ANDERSON,LEROY ANDERSON,,,CA00294,-121.6308,37.1676,"S.10,T.10S,R.3E,MDBM",SANTA CLARA,COYOTE CREEK,MORGAN HILL,2,SANTA CLARA VALLEY WATER DISTRICT,U,,N,ERRE,IXZ,UZ,CHIRS,1950,,1380,240,204.5,185,240,95800,89073,89073,89073,1240,193.4,H,Y,5/8/2018,1,Y,"DWR, SAFETY OF DAMS",U,150,,0,0,0,0,,,,FERC,FERC,,,,FERC,CA,05-AUG-18,,Zoe Lofgren (D),D,CA19,,1,Y,Y,Y,Y,18-DEC-17
4282,RINCONADA RESERVOIR,,,,CA00295,-121.9859,37.2559,,SANTA CLARA,OFFSTREAM,,0,SANTA CLARA VALLEY WATER DISTRICT,U,,N,RE,X,R,S,1969,,240,40,0,39.5,40,0,0,46,46,3,0,H,Y,12/11/2017,1,Y,"DWR, SAFETY OF DAMS",U,0,,14500,0,0,0,,,,,,,,,CA,CA,30-JUL-18,,Anna G. Eshoo (D),D,CA18,,0,Y,Y,Y,Y,27-OCT-16
4283,MAGALIA,,,,CA00296,-121.5844,39.8146,,BUTTE,LITTLE BUTTE CR,1,1,PARADISE IRRIGATION DISTRICT,U,,N,RE,X,R,S,1918,,830,103,0,89.3,103,0,0,2900,2900,96,11.8,H,Y,3/23/2018,1,Y,"DWR, SAFETY OF DAMS",U,0,,263000,0,0,0,,,,,,,,,CA,CA,30-JUL-18,,Doug LaMalfa (R),R,CA01,,0,Y,Y,Y,Y,
4284,PARADISE,,,,CA00297,-121.5781,39.8508,,BUTTE,LITTLE BUTTE CR,3,3,PARADISE IRRIGATION DISTRICT,U,,Y,RE,X,RS,S,1957,,1720,175,0,161,175,0,0,11500,11500,244,8.66,H,Y,11/2/2017,1,Y,"DWR, SAFETY OF DAMS",U,0,,771177,0,0,0,,,,,,,,,CA,CA,30-JUL-18,,Doug LaMalfa (R),R,CA01,,0,Y,Y,Y,Y,
4285,SANTIAGO CREEK,IRVINE LAKE,,,CA00298,-117.7226,33.7863,,ORANGE,SANTIAGO CREEK,4,4,SERRANO WATER DISTRICT AND IRVINE RANCH WATER DISTRICT,U,,N,RE,X,RS,S,1933,,1425,136,0,120,136,0,0,25000,25000,650,63.1,H,Y,5/3/2018,1,Y,"DWR, SAFETY OF DAMS",U,0,,789000,0,0,0,,,,,,,,,CA,CA,30-JUL-18,,Katie Porter (D),D,CA45,,0,Y,Y,Y,Y,
4286,NORTH FORK,PACHECO LAKE,,,CA00299,-121.2921,37.0498,,SANTA CLARA,PACHECO CREEK,6,6,PACHECO PASS WATER DISTRICT,U,,N,RE,X,R,S,1939,,600,100,0,88,100,0,0,6150,6150,197,67.2,H,N,11/6/2017,1,Y,"DWR, SAFETY OF DAMS",U,0,,325000,0,0,0,,,,,,,,,CA,CA,30-JUL-18,,Zoe Lofgren (D),D,CA19,,0,Y,Y,Y,Y,
4287,WEST VALLEY,,,,CA00300,-120.4121,41.2228,,MODOC,WEST VALLEY CR,5,5,SOUTH FORK IRRIGATION DISTRICT,U,,N,RE,X,S,S,1936,,305,65,0,53.7,65,0,0,23000,23000,1050,136,H,N,6/20/2018,1,Y,"DWR, SAFETY OF DAMS",U,0,,43800,0,0,0,,,,,,,,,CA,CA,30-JUL-18,,Doug LaMalfa (R),R,CA01,,0,Y,Y,Y,Y,
4288,PEOPLES WEIR,,,,CA00301,-119.5369,36.4864,,KINGS,KINGS RIVER,,0,PEOPLES DITCH COMPANY,P,,N,CB,X,S,CS,1936,,530,23,0,16,23,0,0,120,120,40,1600,L,N,6/20/2017,1,Y,"DWR, SAFETY OF DAMS",U,0,,1570,0,0,0,,,,,,,,,CA,CA,30-JUL-18,,TJ Cox (D),D,CA21,,0,Y,Y,Y,Y,
4289,REYNOLDS WEIR,,,,CA00302,-119.6705,36.4344,,FRESNO,TR KINGS RIVER,,0,LAGUNA IRRIGATION DISTRICT,U,,N,CB,X,S,CS,1928,,130,13,0,11,13,0,0,260,260,21,1850,L,N,6/19/2017,1,Y,"DWR, SAFETY OF DAMS",U,0,,0,0,0,0,,,,,,,,,CA,CA,30-JUL-18,,TJ Cox (D),D,CA21,,0,Y,Y,Y,Y,
4290,ISLAND WEIR,,,,CA00303,-119.7896,36.3878,,KINGS,NFK KINGS RV,,0,LAGUNA IRRIGATION DISTRICT,U,,N,CB,X,S,CS,1926,,224,13,0,8,13,0,0,230,230,18,1600,L,N,6/19/2017,1,Y,"DWR, SAFETY OF DAMS",U,0,,0,0,0,0,,,,,,,,,CA,CA,30-JUL-18,,TJ Cox (D),D,CA21,,0,Y,Y,Y,Y,
4291,FAIRMOUNT PARK,EVANS LAKE,,,CA00304,-117.3825,33.9954,,RIVERSIDE,TR SANTA ANA RIVER,2,2,CITY OF RIVERSIDE,L,,N,RE,X,S,RS,1923,,800,12,0,9,12,0,0,200,200,40,22,H,N,5/4/2018,1,Y,"DWR, SAFETY OF DAMS",U,0,,28000,0,0,0,,,,,,,,,CA,CA,30-JUL-18,,Mark Takano (D),D,CA41,,0,Y,Y,Y,Y,
4292,MOCKINGBIRD CANYON,,,,CA00305,-117.4156,33.8952,,RIVERSIDE,MOCKINGBIRD CAN,2,2,CITY OF RIVERSIDE,L,,N,RE,X,RS,S,1914,,1525,74,0,55,74,0,0,1250,1250,64,13.13,H,N,5/4/2018,1,Y,"DWR, SAFETY OF DAMS",U,0,,140000,0,0,0,,,,,,,,,CA,CA,30-JUL-18,,Mark Takano (D),D,CA41,,0,Y,Y,Y,Y,
4293,REDHAWK LAKE,CALAVERAS,,,CA00306,-120.4944,38.3256,,CALAVERAS,NFK CALAVERAS RIV,15,15,CALAVERAS PUBLIC UTILITY DISTRICT,U,,N,RE,X,S,CS,1882,,780,33,0,28.1,33,0,0,2760,2760,80,2.5,S,N,6/15/2018,1,Y,"DWR, SAFETY OF DAMS",U,0,,81000,0,0,0,,,,,,,,,CA,CA,30-JUL-18,,Tom McClintock (R),R,CA04,,0,Y,Y,Y,Y,
4294,CPUD MIDDLE FORK,SCHAAD'S RESERVOIR,,,CA00307,-120.4425,38.3848,"S.POR 9,T.6,R.14",CALAVERAS,MIDDLE FORK MOKELUMNE RIVER,WEST POINT,5,CALAVERAS PUBLIC UTILITY DISTRICT,U,,N,RE,FEK,RK,HP,1939,1989,900,102,112,82,112,13500,2525,1650,2525,45,28.5,H,Y,9/19/2017,1,Y,"DWR, SAFETY OF DAMS",U,0,,0,0,0,0,,,,FERC,FERC,,,,FERC,CA,05-AUG-18,,Tom McClintock (R),R,CA04,,1,Y,Y,Y,Y,19-APR-18
4295,JEFF DAVIS,,,,CA00309,-120.5406,38.3439,,CALAVERAS,TR WET GULCH CRK,2.5,2.5,CALAVERAS PUBLIC UTILITY DISTRICT,U,,N,RE,X,R,S,1973,,102,114,0,109,114,0,0,1800,1800,62,0.4,H,N,6/15/2018,1,Y,"DWR, SAFETY OF DAMS",U,0,,555000,0,0,0,,,,,,,,,CA,CA,30-JUL-18,,Tom McClintock (R),R,CA04,,0,Y,Y,Y,Y,
4296,KIMBALL CREEK,,,,CA00310,-122.6133,38.6202,,NAPA,KIMBALL CREEK,3.5,3.5,CITY OF CALISTOGA,L,,N,RE,X,R,S,1939,,325,80,0,74,80,0,0,344,344,14,3.44,H,Y,3/13/2018,1,Y,"DWR, SAFETY OF DAMS",U,0,,91000,0,0,0,,,,,,,,,CA,CA,30-JUL-18,,Mike Thompson (D),D,CA05,,0,Y,Y,Y,Y,
4297,CRESCENT WEIR,,,,CA00311,-119.8771,36.3853,,KINGS,ZALDA CREEK,,0,CRESCENT CANAL COMPANY,P,,N,CBCN,X,S,CS,1933,,327,16,0,6.1,16,0,0,50,50,9,1600,L,N,6/8/2017,1,Y,"DWR, SAFETY OF DAMS",U,0,,550,0,0,0,,,,,,,,,CA,CA,30-JUL-18,,TJ Cox (D),D,CA21,,0,Y,Y,Y,Y,
4298,MATILIJA,,,,CA00312,-119.3084,34.4838,,VENTURA,MATILIJA CREEK,3,3,VENTURA COUNTY WATERSHED PROTECTION DISTRICT,L,,Y,VA,X,R,CS,1949,,620,163,0,120,163,0,0,1800,1800,86,55,H,Y,2/13/2018,1,Y,"DWR, SAFETY OF DAMS",U,0,,47825,0,0,0,,,,,,,,,CA,CA,30-JUL-18,,Julia Brownley (D),D,CA26,,0,Y,Y,Y,Y,
4299,RUNKLE,,,,CA00313,-118.731,34.2448,,VENTURA,RUNKLE CANYON,4,4,VENTURA COUNTY WATERSHED PROTECTION DISTRICT,L,,N,RE,X,RS,C,1949,,250,41,0,31.8,41,0,0,100,100,7,1.86,H,Y,2/14/2018,1,Y,"DWR, SAFETY OF DAMS",U,0,,33500,0,0,0,,,,,,,,,CA,CA,30-JUL-18,,Katie Hill (D),D,CA25,,0,Y,Y,Y,Y,
4300,SMALL CANYON,,,,CA00314,-117.2001,34.1468,,SAN BERNARDINO,TR CITY CREEK,1,1,COUNTY OF SAN BERNARDINO DEPARTMENT OF PUBLIC WORKS,L,,Y,RE,X,U,D,1957,,245,68,0,60,68,0,0,20,20,2,0,H,N,2/6/2018,1,Y,"DWR, SAFETY OF DAMS",U,0,,62000,0,0,0,,,,,,,,,CA,CA,30-JUL-18,,Pete Aguilar (D),D,CA31,,0,Y,Y,Y,Y,
4301,LITTLE MOUNTAIN,,,,CA00318,-117.2943,34.1643,,SAN BERNARDINO,DEVIL CAN CR,2,2,COUNTY OF SAN BERNARDINO DEPARTMENT OF PUBLIC WORKS,L,,N,RE,X,S,C,1958,,2100,28,0,17.4,28,0,0,150,150,23,5.22,H,Y,2/6/2018,1,Y,"DWR, SAFETY OF DAMS",U,0,,59000,0,0,0,,,,,,,,,CA,CA,30-JUL-18,,Pete Aguilar (D),D,CA31,,0,Y,Y,Y,Y,23-DEC-15
4302,ALTA LOMA BASIN #1,,,,CA00319,-117.5909,34.1437,,SAN BERNARDINO,ALTA LOMA CHANNEL,1,1,COUNTY OF SAN BERNARDINO DEPARTMENT OF PUBLIC WORKS,L,,N,RE,X,S,C,1964,,2600,30,0,23,30,0,0,70,70,23,1.98,H,Y,2/7/2018,1,Y,"DWR, SAFETY OF DAMS",U,0,,59500,0,0,0,,,,,,,,,CA,CA,30-JUL-18,,Pete Aguilar (D),D,CA31,,0,Y,Y,Y,Y,23-DEC-15
4303,ALTA LOMA BASIN #2,,,,CA00320,-117.5842,34.1435,,SAN BERNARDINO,ALTA LOMA CHANNEL,1,1,COUNTY OF SAN BERNARDINO DEPARTMENT OF PUBLIC WORKS,L,,N,RE,X,S,C,1971,,3000,22,0,14,22,0,0,85,85,26,0.54,H,Y,2/7/2018,1,Y,"DWR, SAFETY OF DAMS",U,0,,90000,0,0,0,,,,,,,,,CA,CA,30-JUL-18,,Pete Aguilar (D),D,CA31,,0,Y,Y,Y,Y,23-DEC-15
4304,NOVATO CREEK,STAFFORD LAKE,,,CA00321,-122.6368,38.118,,MARIN,NOVATO CREEK,2,2,NORTH MARIN COUNTY WATER DISTRICT,U,,N,RE,X,S,CS,1951,,650,71,0,53,71,0,0,4430,4430,195,8.64,H,Y,3/8/2018,1,Y,"DWR, SAFETY OF DAMS",U,0,,590922,0,0,0,,,,,,,,,CA,CA,30-JUL-18,,Jared Huffman (D),D,CA02,,0,Y,Y,Y,Y,21-OCT-15
4305,LAKE ANGELA,,,,CA00322,-120.3279,39.3225,,NEVADA,TR SFK YUBA RV,1.9,1.9,DONNER SUMMIT PUBLIC UTILITY DISTRICT,U,,N,PG,X,R,ST,1924,,820,28,0,28,28,0,0,310,310,18,0.2,H,N,5/23/2018,1,Y,"DWR, SAFETY OF DAMS",U,0,,1610,0,0,0,,,,,,,,,CA,CA,30-JUL-18,,Doug LaMalfa (R),R,CA01,,0,Y,Y,Y,Y,
4306,COPCO NO 1,,,,CA00323,-122.3334,41.9794,"T48N,R4W,S30",SISKIYOU,KLAMATH RIVER,HORNBROOK,10,PACIFICORP,P,COPCO,Y,CNPGVA,HCK,RK,FHR,1922,,415,230,250,123,250,46900,60000,46867,60000,1000,4300,H,Y,5/16/2018,1,Y,"DWR, SAFETY OF DAMS",C,182,T13;L3;,0,0,0,0,,,,FERC,FERC,,,,FERC,CA,05-AUG-18,,Doug LaMalfa (R),R,CA01,,1,Y,Y,Y,Y,02-JAN-18
4307,COPCO NO 2,,,,CA00324,-122.339,41.9791,"T47N,R4W,S30",SISKIYOU,KLAMATH RIVER,NONE,0,PACIFICORP,P,COPCO,Y,CBCNPG,HCK,RK,H,1925,,278,38,63,27,63,44800,73,73,73,5,4300,L,Y,5/18/2018,3,Y,"DWR, SAFETY OF DAMS",C,130,T5;L1;,0,0,0,0,,,,FERC,FERC,,,,FERC,CA,05-AUG-18,,Doug LaMalfa (R),R,CA01,,1,Y,Y,Y,Y,15-DEC-05
4308,IRON GATE,,,,CA00325,-122.4349,41.9342,"T47N,R5W,S9",SISKIYOU,KLAMATH RIVER,HORNBROOK,45,PACIFICORP,P,PIONEER SERVICES & ENGINEERING CO.,Y,ERRE,IEK,RK,HOR,1962,,740,173,189,163,189,72000,58000,19000,58000,580,4360,H,Y,5/15/2018,1,Y,"DWR, SAFETY OF DAMS",U,727,,0,0,0,0,,,,FERC,FERC,,,,FERC,CA,05-AUG-18,,Doug LaMalfa (R),R,CA01,,1,Y,Y,Y,Y,02-JAN-18
4309,BUTT VALLEY,,,,CA00326,-121.1461,40.1154,"S.13,T.26N,R.27E",PLUMAS,BUTT CREEK,LITTLE HAVEN,11,PACIFIC GAS AND ELECTRIC COMPANY,P,,N,RE,,,H,1924,,1520,70,80,70,80,30000,49897,49800,49897,1600,83.5,H,Y,9/19/2017,1,Y,"DWR, SAFETY OF DAMS",U,150,,440000,0,0,0,,,,FERC,FERC,,,,FERC,CA,05-AUG-18,,Doug LaMalfa (R),R,CA01,,1,Y,Y,Y,Y,04-JAN-18
4310,LAKE ALMANOR,CANYON,,,CA00327,-121.0888,40.1744,"S.28.T.27N,R.8E",PLUMAS,NORTH FORK FEATHER RIVER,SENECA,5,PACIFIC GAS AND ELECTRIC COMPANY,P,,N,RE,,,H,1927,,1750,90,135,90,135,70000,1142964,1140000,1142964,27064,491,H,Y,9/19/2017,1,Y,"DWR, SAFETY OF DAMS",U,500,,1533000,0,0,0,,,,FERC,FERC,,,,FERC,CA,05-AUG-18,,Doug LaMalfa (R),R,CA01,,1,Y,Y,Y,Y,04-JAN-18
4311,POE,,,,CA00328,-121.4318,39.8097,"S.32,T.23N,R.5E",BUTTE,NORTH FORK FEATHER RIVER,PULGA,1,PACIFIC GAS AND ELECTRIC COMPANY,P,,Y,CNPG,,R,H,1958,,427,80,0,40,80,160000,1204,1150,1204,53.3,1942,L,NR,8/25/2016,2,Y,"DWR, SAFETY OF DAMS",C,243,T6;,0,0,0,0,,,,FERC,FERC,,,,FERC,CA,05-AUG-18,,Doug LaMalfa (R),R,CA01,,1,Y,Y,Y,Y,
4312,CRESTA,,,,CA00329,-121.3702,39.8805,"S.1,T.23N,R.5E",PLUMAS,NORTH FORK FEATHER RIVER,PULGA,7,PACIFIC GAS AND ELECTRIC COMPANY,P,,Y,CNPG,,R,H,1949,,378,113,0,0,113,211000,4140,2000,4140,62,1880,S,Y,9/18/2017,1,Y,"DWR, SAFETY OF DAMS",C,271,T1;D2;,0,0,0,0,,,,FERC,FERC,,,,FERC,CA,05-AUG-18,,Doug LaMalfa (R),R,CA01,,1,Y,Y,Y,Y,04-JAN-18
4313,ROCK CREEK,,,,CA00330,-121.2834,39.9866,"S.23,24,26,35,T.25N,R.6E",PLUMAS,NORTH FORK FEATHER RIVER,TOBIN,4,PACIFIC GAS AND ELECTRIC COMPANY,P,,Y,CNPG,,R,H,1950,,567,126,0,0,126,280000,4400,1590,4400,114,1771,H,Y,9/18/2017,1,Y,"DWR, SAFETY OF DAMS",C,60,T1;D2;,0,0,0,0,,,,FERC,FERC,,,,FERC,CA,05-AUG-18,,Doug LaMalfa (R),R,CA01,,1,Y,Y,Y,Y,04-JAN-18
4314,LOWER BUCKS LAKE,BUCKS DIVERSION,,,CA00331,-121.2283,39.9012,"S.29,T.24N,R.7E",PLUMAS,BRUSH CREEK,PULGA,18,PACIFIC GAS AND ELECTRIC COMPANY,P,,Y,CNPGVA,,R,HRS,1928,,495,99,96,89,99,15500,5843,5840,5843,136,31.2,S,Y,6/27/2018,1,Y,"DWR, SAFETY OF DAMS",U,200,,46000,0,0,0,,,,FERC,FERC,,,,FERC,CA,05-AUG-18,,Doug LaMalfa (R),R,CA01,,1,Y,Y,Y,Y,04-JAN-18
4315,BUCKS LAKE,BUCKS STORAGE,,,CA00332,-121.2038,39.8953,"S.33,T.24N,R.7E",PLUMAS,BRUSH CREEK,PULGA,20,PACIFIC GAS AND ELECTRIC COMPANY,P,,Y,ER,,R,HRS,1928,,1320,123,109,96,123,15000,105605,102000,105605,1852,28.6,H,Y,6/27/2018,1,Y,"DWR, SAFETY OF DAMS",U,100,,600000,0,0,0,,,,FERC,FERC,,,,FERC,CA,05-AUG-18,,Doug LaMalfa (R),R,CA01,,1,Y,Y,Y,Y,04-JAN-18
4316,GRIZZLY FOREBAY,,,,CA00333,-121.2919,39.8914,"S.34,35,T.24N,R.6E",PLUMAS,GRIZZLY CREEK,PULGA,14,PACIFIC GAS AND ELECTRIC COMPANY,P,,Y,CNPGVA,,R,H,1928,,520,98,87,82,98,9200,1112,1110,1112,38,14.6,S,Y,6/27/2018,1,Y,"DWR, SAFETY OF DAMS",U,100,,21000,0,0,0,,,,FERC,FERC,,,,FERC,CA,05-AUG-18,,Doug LaMalfa (R),R,CA01,,1,Y,Y,Y,Y,04-JAN-18
4317,THREE LAKES,,,,CA00334,-121.2235,39.9681,"S.4,5,T.24N,R.7E",PLUMAS,FEATHER RIVER,ROGERS CAMP,3,PACIFIC GAS AND ELECTRIC COMPANY,P,,Y,ER,,R,H,1928,,584,30,33,27.3,33,500,606,513,606,44,1.3,L,NR,6/1/2018,1,Y,"DWR, SAFETY OF DAMS",U,24,,14000,0,0,0,,,,FERC,FERC,,,,FERC,CA,05-AUG-18,,Doug LaMalfa (R),R,CA01,,1,Y,Y,Y,Y,
4318,BALCH DIVERSION,BLACK ROCK,,,CA00335,-119.0234,36.9198,"S.3,T.12S,R.27E",FRESNO,NORTH FORK KINGS RIVER,BALCH CAMP,7,PACIFIC GAS AND ELECTRIC COMPANY,P,,Y,CNVA,HCK,RK,H,1927,1958S,396,135,0,134,135,47000,1295,1260,1295,35,56,S,Y,9/26/2017,1,Y,"DWR, SAFETY OF DAMS",U,0,,0,0,0,0,,,,FERC,FERC,,,,FERC,CA,05-AUG-18,,Tom McClintock (R),R,CA04,,1,Y,Y,Y,Y,04-JAN-18
4319,BALCH AFTERBAY,,,,CA00336,-119.0906,36.9096,"S.12,T.12S,R.26E",FRESNO,NORTH FORK KINGS RIVER,BALCH CAMP,2,PACIFIC GAS AND ELECTRIC COMPANY,P,,Y,CNVA,HCK,RK,H,1928,1962S,237.5,165,0,164,165,43000,325,317,325,7,13,S,Y,9/26/2017,1,Y,"DWR, SAFETY OF DAMS",U,0,,0,0,0,0,,,,FERC,FERC,,,,FERC,CA,05-AUG-18,,Tom McClintock (R),R,CA04,,1,Y,Y,Y,Y,04-JAN-18
4320,CRANE VALLEY,BASS LAKE,,,CA00337,-119.5292,37.2923,"S.26,T.7S,R.22E",MADERA,NORTH FORK WILLOW CREEK,NORTH FORK,6,PACIFIC GAS AND ELECTRIC COMPANY,P,,Y,,IXZ,UZ,HR,1910,,1880,145,145,140.9,145,27000,45410,45400,45410,1165,39.7,H,Y,9/12/2017,1,Y,"DWR, SAFETY OF DAMS",C,173,T2;,0,0,0,0,,,,FERC,FERC,,,,FERC,CA,05-AUG-18,,Tom McClintock (R),R,CA04,,1,Y,Y,Y,Y,03-JAN-18
4321,WISHON FOREBAY,CORRINE LAKE,,,CA00338,-119.4963,37.159,"S.7,8,T.9S,R.23E",MADERA,NORTH FORK WILLOW CREEK,FRIANT,17,PACIFIC GAS AND ELECTRIC COMPANY,P,,Y,RE,IXZ,UZ,HR,1896,,1572,15,15,12,15,1000,69,69,69,7,0,L,NR,9/13/2017,1,Y,"DWR, SAFETY OF DAMS",U,62,,0,0,0,0,,,,FERC,FERC,,,,FERC,CA,05-AUG-18,,Tom McClintock (R),R,CA04,,1,Y,Y,Y,Y,
4322,SAN JOAQUIN NO. 3 FOREBAY,,,,CA00339,-119.5325,37.2535,"S.11,T.8S,R.22E",MADERA,NORTH FORK WILLOW CREEK,NORTH FORK,2,PACIFIC GAS AND ELECTRIC COMPANY,P,,N,RE,IXZ,UZ,H,1906,,450,40,40,7,40,170,20,19,20,3,0,L,NR,9/12/2017,1,Y,"DWR, SAFETY OF DAMS",U,42,,0,0,0,0,,,,FERC,FERC,,,,FERC,CA,05-AUG-18,,Tom McClintock (R),R,CA04,,1,Y,Y,Y,Y,
4323,KERCKHOFF,,,,CA00340,-119.5274,37.1284,"S.24,T.9S,R.22E","FRESNO, MADERA",SAN JOAQUIN RIVER,FRIANT,15,PACIFIC GAS AND ELECTRIC COMPANY,P,,N,CNVA,HCZ,UZ,HR,1920,,507,114,106,86,114,75000,4252,4250,4252,160,1461,L,NR,9/29/2016,2,Y,"DWR, SAFETY OF DAMS",C,280,T14;,0,0,0,0,,,,FERC,FERC,,,,FERC,CA,05-AUG-18,,Tom McClintock (R),R,CA04,,1,Y,Y,Y,Y,
4324,MERCED FALLS,,,,CA00341,-120.3295,37.5222,"S.4,T.5S,R.15E",MERCED,MERCED RIVER,SNELLING,7,MERCED IRRIGATION DISTRICT,U,,N,CNPGRE,HCZ,UZ,H,1901,,1679,43,34,29,43,44000,678,603,678,65,1020,H,Y,9/22/2017,1,Y,"DWR, SAFETY OF DAMS",C,610,T3;,0,0,0,0,,,,FERC,FERC,,,,FERC,CA,05-AUG-18,,Jim Costa (D),D,CA16,,1,Y,Y,Y,Y,03-JAN-18
4325,MANZANITA DIVERSION,MANZANITA LAKE,,,CA00342,-119.5145,37.244,"S.12,T.8S,R.22E",MADERA,NORTH FORK WILLOW CREEK,NORTH FORK,1,PACIFIC GAS AND ELECTRIC COMPANY,P,,N,CNVA,HCZ,UZ,H,1917,,205,30,30,30,30,1500,168,164,168,26,61,H,Y,9/13/2017,1,Y,"DWR, SAFETY OF DAMS",U,29,,0,0,0,0,,,,FERC,FERC,,,,FERC,CA,05-AUG-18,,Tom McClintock (R),R,CA04,,1,Y,Y,Y,Y,03-JAN-18
4326,DE SABLA FOREBAY,,,,CA00343,-121.6117,39.8722,"S.2,11,T.23N,R.3E",BUTTE,BUTTE CREEK,DE SABLA,1,PACIFIC GAS AND ELECTRIC COMPANY,P,,N,RE,IXZ,UZ,H,1962,,1079,52,0,0,52,500,188,180,188,14.9,0.3,L,NR,9/13/2016,2,Y,"DWR, SAFETY OF DAMS",U,44,,0,0,0,0,,,,FERC,FERC,,,,FERC,CA,05-AUG-18,,Doug LaMalfa (R),R,CA01,,1,Y,Y,Y,Y,
4327,KUNKLE,,,,CA00344,-121.5757,39.713,,BUTTE,TR W BR FEATHER R,,0,PACIFIC GAS AND ELECTRIC COMPANY,P,,N,RE,X,R,OS,1907,,1040,54,0,44.9,54,0,0,155,155,18,1.06,S,Y,5/8/2018,1,Y,"DWR, SAFETY OF DAMS",U,0,,80960,0,0,0,,,,,,,,,CA,CA,30-JUL-18,,Doug LaMalfa (R),R,CA01,,0,Y,Y,Y,Y,31-DEC-16
4328,PHILBROOK MAIN,PHILBROOK NO. 1,,,CA00345,-121.4768,40.0293,"S.13,T.25N,R.4E",BUTTE,PHILBROOK CREEK,STIRLING CITY,10,PACIFIC GAS AND ELECTRIC COMPANY,P,,N,RE,IXK,UK,H,1926,,850,87,0,0,87,2050,0,5009,5009,173,5,H,Y,7/18/2017,2,Y,"DWR, SAFETY OF DAMS",C,14,T1;,0,0,0,0,,,,FERC,FERC,,,,FERC,CA,05-AUG-18,,Doug LaMalfa (R),R,CA01,,2,Y,Y,Y,Y,04-JAN-18
4329,PHILBROOK SADDLE,,,,CA00345,-121.4746,40.0307,"S.13,T.25N,R.4E",BUTTE,PHILBROOK CREEK,STIRLING CITY,10,PACIFIC GAS AND ELECTRIC COMPANY,P,,N,RE,IXK,UK,H,1926,,470,24,0,0,24,2075,0,5009,5009,173,5,L,NR,7/18/2017,2,N,,U,30,,0,0,0,0,,,,FERC,FERC,,,,FERC,CA,05-AUG-18,,Doug LaMalfa (R),R,CA01,S001,2,N,N,N,N,
4330,ROUND VALLEY,SNAG LAKE,,,CA00346,-121.4532,40.073,"S.30,T.26N,R.5E",BUTTE,WEST BRANCH FEATHER RIVER,STIRLING CITY,12,PACIFIC GAS AND ELECTRIC COMPANY,P,,Y,RE,IXZ,UZ,H,1877,,850,29.4,29,0,29.4,1800,1200,1196,1200,96.3,2.3,H,Y,7/18/2017,2,Y,"DWR, SAFETY OF DAMS",U,0,,0,0,0,0,,,,FERC,FERC,,,,FERC,CA,05-AUG-18,,Doug LaMalfa (R),R,CA01,,1,Y,Y,Y,Y,04-JAN-18
4331,BLUE LAKE,,,,CA00347,-120.6363,39.3583,"S.9,T.17N,R.12E",NEVADA,RUCKER CREEK,NONE,0,PACIFIC GAS AND ELECTRIC COMPANY,P,,N,RE,,,H,1856,,282,21,25,21,25,253,1163,1200,1200,62,0.3,H,Y,7/10/2017,1,Y,"DWR, SAFETY OF DAMS",U,12,,2500,0,0,0,,,,FERC,FERC,,,,FERC,CA,05-AUG-18,,Doug LaMalfa (R),R,CA01,,1,Y,Y,Y,Y,03-JAN-18
4332,HALSEY AFTERBAY,,,,CA00348,-121.0428,38.9559,"S.26,T.13N,R.8E",PLACER,DRY CREEK,BAXTER,3,PACIFIC GAS AND ELECTRIC COMPANY,P,,N,ER,,,H,1913,,222,38,40.2,29,40.2,2830,106,60,106,9,3.5,H,Y,5/15/2018,1,Y,"DWR, SAFETY OF DAMS",U,72,,6000,0,0,0,,,,FERC,FERC,,,,FERC,CA,05-AUG-18,,Doug LaMalfa (R),R,CA01,,1,Y,Y,Y,Y,03-JAN-18
